"isReserved","updateRes","OMSCHR","NAAM","vrijwillID","startDate","SugbyINBO","locID","restricties","Sampler","dataset","SystemType","GEBIED","provincie","gemeente","postcode","CATC","VHAG","WVLC","Latitude","Longitude","Beheerder","Bhrtel","Bhremail"
FALSE,FALSE,"Kaulille, Broekerheide, oude hostieweg, dan zandpad inrijden, opw brug","Warmbeek",NA,NA,"YES","I_3950_1",NA,NA,"VMM_Mtp","Lotisch",NA,"Limburg","Bocholt",3950,2,9508,NA,51.1968064927635,5.49538932476128,"Limburg",NA,"christel.bouchet@limburg.be"
FALSE,FALSE,"Goolderheideweg, opw weg","Balkenloop",NA,NA,"YES","I_3950_2",NA,NA,"VMM_Mtp","Lotisch",NA,"Limburg","Bocholt",3950,2,473,NA,51.1754534313333,5.53638948726679,"Limburg",NA,"christel.bouchet@limburg.be"
FALSE,FALSE,"onverhard verlengde Goosweg, opw weg","Rieterheideloop",NA,NA,"YES","I_3950_3",NA,NA,"VMM_Mtp","Lotisch",NA,"Limburg","Bocholt",3950,2,332,NA,51.1885454250816,5.5424250675991,"Limburg",NA,"christel.bouchet@limburg.be"
FALSE,FALSE,"zijbeek Hamonterbeek, Hamont, Lozerweg 100, via hoofdingang Lo kasteel De L'Escaille, opw onverharde weg","Lobeek",NA,NA,"YES","I_3930_1",NA,NA,"VMM_Mtp","Lotisch",NA,"Limburg","Hamont-Achel",3930,2,10201,NA,51.2264366219971,5.54330799107469,"Limburg",NA,"christel.bouchet@limburg.be"
FALSE,FALSE,"Stramproyerweg, aan grenspaal 160, opw onderkokering aan Abeek (stuw)","Abeek",NA,NA,"YES","I_3950_4",NA,NA,"VMM_Mtp","Lotisch",NA,"Limburg","Bocholt",3950,1,9505,NA,51.1847250336073,5.65790646933889,"VMM",NA,"d.slootmaekers@vmm.be"
FALSE,FALSE,"Neeritter, Huikenhof (NL), opw brug","Itterbeek",NA,NA,"YES","I_3640_12",NA,NA,"VMM_Mtp","Lotisch",NA,"Limburg","Kinrooi",3640,1,9522,NA,51.1570656653496,5.79221185990336,"VMM",NA,"d.slootmaekers@vmm.be"
FALSE,FALSE,"Ophoven, aan kruising met Dalerstr, opw brug","Abeek",NA,NA,"YES","I_3640_1",NA,NA,"VMM_Mtp","Lotisch",NA,"Limburg","Kinrooi",3640,1,9505,NA,51.1257380340948,5.8118870110499,"VMM",NA,"d.slootmaekers@vmm.be"
FALSE,FALSE,"Kinrooi, Breeërstwg, opw brug","Abeek",NA,NA,"YES","I_3640_2",NA,NA,"VMM_Mtp","Lotisch",NA,"Limburg","Kinrooi",3640,1,9505,NA,51.1454366181222,5.75025116042025,"VMM",NA,"d.slootmaekers@vmm.be"
FALSE,FALSE,"Bocholt, Kreylerstraat, onverharde weg naast huisnr. 29, opw brug","Abeek",NA,NA,"YES","I_3950_5",NA,NA,"VMM_Mtp","Lotisch",NA,"Limburg","Bocholt",3950,1,9505,NA,51.1724651062036,5.60302557094664,"VMM",NA,"d.slootmaekers@vmm.be"
FALSE,FALSE,NA,"Abeek",NA,NA,"YES","I_3670_1",NA,NA,"VMM_Mtp","Lotisch",NA,"Limburg","Oudsbergen",3670,2,9505,NA,51.1339158972003,5.52136227222695,"Limburg",NA,"christel.bouchet@limburg.be"
FALSE,FALSE,"Meeuwen, Peerderbaan, aan grensbord Meeuwen, OPW brug+LZP","Gielisbeek",NA,NA,"YES","I_3990_1",NA,NA,"VMM_Mtp","Lotisch",NA,"Limburg","Peer",3990,2,9663,NA,51.1156463892116,5.49461689524459,"Limburg",NA,"christel.bouchet@limburg.be"
FALSE,FALSE,"Wauberg, Meeuwerbaan (N719), grensbord Peer/Meeuwen, opw weg","Gielisbeek",NA,NA,"YES","I_3990_2",NA,NA,"VMM_Mtp","Lotisch",NA,"Limburg","Peer",3990,2,9663,NA,51.0898191485544,5.48321716782908,"Limburg",NA,"christel.bouchet@limburg.be"
FALSE,FALSE,"Meeuwen, zijweg Berkenstr., afw weg, Meeuwen-Guitrode","Hommelbeek",NA,NA,"YES","I_3670_2",NA,NA,"VMM_Mtp","Lotisch",NA,"Limburg","Oudsbergen",3670,2,9630,NA,51.1035905,5.5022275,"Limburg",NA,"christel.bouchet@limburg.be"
FALSE,FALSE,"Meeuwen; Broekkant","Bullenbeek",NA,NA,"YES","I_3670_3",NA,NA,"VMM_Mtp","Lotisch",NA,"Limburg","Oudsbergen",3670,2,9594,NA,51.0869824007932,5.51095514933787,"Limburg",NA,"christel.bouchet@limburg.be"
FALSE,FALSE,"Aldeneik, Herenlaakweg, aan rotonde linker fietsweg, 1ste pad links naar beneden","Bosbeek",NA,NA,"YES","I_3680_1",NA,NA,"VMM_Mtp","Lotisch",NA,"Limburg","Maaseik",3680,1,10004,NA,51.1040777833372,5.80913301696031,"VMM",NA,"d.slootmaekers@vmm.be"
FALSE,FALSE,"Opoeteren, Volmolenstraat, thv Volmolen, opw verval","Bosbeek",NA,NA,"YES","I_3680_2",NA,NA,"VMM_Mtp","Lotisch",NA,"Limburg","Maaseik",3680,1,10004,NA,51.0767058064957,5.6737655644871,"VMM",NA,"d.slootmaekers@vmm.be"
FALSE,FALSE,"Opoeteren, Dorpermolenstraat thv huis nr.2, 30m opw. molen LO","Bosbeek",NA,NA,"YES","I_3680_3",NA,NA,"VMM_Mtp","Lotisch",NA,"Limburg","Maaseik",3680,1,10004,NA,51.0682086969579,5.65426559279372,"VMM",NA,"d.slootmaekers@vmm.be"
FALSE,FALSE,"Opoeteren, Kasteelstraat, afw brug","Bosbeek",NA,NA,"YES","I_3680_4",NA,NA,"VMM_Mtp","Lotisch",NA,"Limburg","Maaseik",3680,1,10004,NA,51.0563366956689,5.63563719609273,"VMM",NA,"d.slootmaekers@vmm.be"
FALSE,FALSE,"Slagmolen, opw en afw brug","Bosbeek","nzzlmmvm",NA,"YES","I_3660_1",NA,NA,"VMM_Mtp","Lotisch",NA,"Limburg","Oudsbergen",3660,1,10004,NA,51.076721,5.673457,"VMM",NA,"d.slootmaekers@vmm.be"
FALSE,FALSE,"Rotem, Klaverstr/Veesteeg, opw weg","Retselbeek",NA,NA,"YES","I_3650_1",NA,NA,"VMM_Mtp","Lotisch",NA,"Limburg","Dilsen-Stokkem",3650,2,9882,NA,51.0574821616737,5.71628259353312,"Limburg",NA,"christel.bouchet@limburg.be"
FALSE,FALSE,"Dilsen/Stokkem, afw steenweg N78","Vrietselbeek",NA,NA,"YES","I_3650_2",NA,NA,"VMM_Mtp","Lotisch",NA,"Limburg","Dilsen-Stokkem",3650,2,9629,NA,51.0229170818974,5.72694804515648,"Limburg",NA,"christel.bouchet@limburg.be"
FALSE,FALSE,"Boorsem, Langeweidestraat, opw brug - meetplaats 381 (provincie Limburg)","Ziepbeek","mtbiodey",NA,"YES","I_3631_1",NA,NA,"VMM_Mtp","Lotisch",NA,"Limburg","Maasmechelen",3631,2,9766,NA,50.9343809,5.706293,"Limburg",NA,"christel.bouchet@limburg.be"
FALSE,FALSE,"Rekem, Oude god, opw brug - meetplaats 377 (provincie Limburg)","Ziepbeek",NA,NA,"YES","I_3621_1",NA,NA,"VMM_Mtp","Lotisch",NA,"Limburg","Lanaken",3621,2,9766,NA,50.9233028112408,5.70558524431811,"Limburg",NA,"christel.bouchet@limburg.be"
FALSE,FALSE,"Tongeren, Hardelweg/Oude Blaarstraat, Natuurgebied ""De Kevie"", afw brug","Jeker",NA,NA,"YES","I_3700_1",NA,NA,"VMM_Mtp","Lotisch",NA,"Limburg","Tongeren",3700,1,9504,NA,50.7797622297555,5.49074713338154,"VMM",NA,"d.slootmaekers@vmm.be"
FALSE,FALSE,"Lauw, Brugstraat, opw brug","Jeker",NA,NA,"YES","I_3700_2",NA,NA,"VMM_Mtp","Lotisch",NA,"Limburg","Tongeren",3700,1,9504,NA,50.738617397299,5.41144450879059,"VMM",NA,"d.slootmaekers@vmm.be"
FALSE,FALSE,"Moelingen, Voerenstraat, opw brug","Berwijn",NA,NA,"YES","I_3790_1",NA,NA,"VMM_Mtp","Lotisch",NA,"Limburg","Voeren",3790,1,9536,NA,50.7567716863156,5.71344246373497,"VMM",NA,"d.slootmaekers@vmm.be"
FALSE,FALSE,"Bassevelde,Zwarte Hoek,Beekstraat,opw weg","Hollemeersbeek",NA,NA,"YES","I_9968_1",NA,NA,"VMM_Mtp","Lotisch",NA,"Oost-Vlaanderen","Assenede",9968,2,2880,NA,51.2242378158697,3.6667882087607,"Isabellapolder","09/3575770","info@isabellapolder.be"
FALSE,FALSE,"Burgstraat, opw weg","Maatbeek","yjbjmtay","26/8/24","YES","I_9960_1",NA,NA,"VMM_Mtp","Lotisch",NA,"Oost-Vlaanderen","Assenede",9960,2,2894,NA,51.2171653,3.733953,"Zwarte Sluispolder","09/3445519","zwartesluispolder@telenet.be"
FALSE,FALSE,"Rode Weel, thv bunker a brug over Verlegde Schijns","Hoofdgracht",NA,NA,"YES","I_2030_1",NA,NA,"VMM_Mtp","Lotisch",NA,"Antwerpen","Antwerpen",2030,1,3104,NA,51.3013778797996,4.37241519189361,"VMM",NA,"d.slootmaekers@vmm.be"
FALSE,FALSE,"Deurne; Ruggeveldlaan, opw Rivierenhof, opw brug","Groot Schijn",NA,NA,"YES","I_2100_1",NA,NA,"VMM_Mtp","Lotisch",NA,"Antwerpen","Antwerpen",2100,1,3103,NA,51.2140025092506,4.48164417719761,"VMM",NA,"d.slootmaekers@vmm.be"
FALSE,FALSE,"Deurne; grens Wommelgem, Autolei, afw brug","Groot Schijn","zwjizmvl",NA,"YES","I_2160_1",NA,NA,"VMM_Mtp","Lotisch",NA,"Antwerpen","Wommelgem",2160,1,3103,NA,51.2157686,4.4950443,"VMM",NA,"d.slootmaekers@vmm.be"
FALSE,FALSE,"Westmalle; Ossegoor, Sparrenlaan, opw weg","Groot Schijn",NA,NA,"YES","I_2390_1","bij voorkeur tussen 20/07 - 01/09",NA,"VMM_Mtp","Lotisch",NA,"Antwerpen","Malle",2390,2,3103,NA,51.2849529,4.6789681,"Antwerpen",NA,"hans.vanloy@provincieantwerpen.be"
FALSE,FALSE,"Ekeren; Rode Weel thv PS","Voorgracht",NA,NA,"YES","I_2030_2",NA,NA,"VMM_Mtp","Lotisch",NA,"Antwerpen","Antwerpen",2030,1,16818,NA,51.3057614387582,4.34273309075741,"VMM",NA,"d.slootmaekers@vmm.be"
FALSE,FALSE,"Walenhoek, Ettenhovense Dijk, afw autoweg","Afwateringsgracht",NA,NA,"YES","I_2030_3","omheind",NA,"VMM_Mtp","Lotisch",NA,"Antwerpen","Antwerpen",2030,1,3251,NA,51.3103297,4.3589644,"VMM",NA,"d.slootmaekers@vmm.be"
FALSE,FALSE,"Bassevelde,Hasselstraat, opw weg","Oosteeklose Beek","yjbjmtay","26/8/24","YES","I_9968_2",NA,NA,"VMM_Mtp","Lotisch",NA,"Oost-Vlaanderen","Assenede",9968,2,2964,NA,51.2178119,3.7059449,"Isabellapolder","09/3575770","info@isabellapolder.be"
FALSE,FALSE,"Okkervoorde, Duikeldam ,Dijkweg Watergang vd Hoge Landen",NA,NA,NA,"YES","I_9170_1",NA,NA,"VMM_Mtp","Lotisch",NA,"Oost-Vlaanderen","Sint-Gillis-Waas",9170,2,47101,NA,51.2279694,4.1412993,"Oost-Vlaanderen",NA,"waterbeleid@oost-vlaanderen.be"
FALSE,FALSE,"Ast, Aststr, zandweg, afw sas","Grauwersteenbeek","otniytkz","TBD","YES","I_9170_2",NA,NA,"VMM_Mtp","Lotisch",NA,"Oost-Vlaanderen","Sint-Gillis-Waas",9170,2,4013,NA,51.2139559,4.1103121,"Oost-Vlaanderen",NA,"waterbeleid@oost-vlaanderen.be"
FALSE,FALSE,"Haasdonk, Oude Baan, opw weg","Gaverse Beek",NA,NA,"YES","I_9120_1",NA,NA,"VMM_Mtp","Lotisch",NA,"Oost-Vlaanderen","Beveren",9120,2,3512,NA,51.1970978945056,4.22393793062277,"Oost-Vlaanderen",NA,"waterbeleid@oost-vlaanderen.be"
FALSE,FALSE,"Sint-Niklaasstr, op het einde v/e zandweg, thv de bocht i/d beek","Schuilhoekbeek","otniytkz","TBD","YES","I_9170_3",NA,NA,"VMM_Mtp","Lotisch",NA,"Oost-Vlaanderen","Sint-Gillis-Waas",9170,2,3231,NA,51.1997818,4.1461147,"Oost-Vlaanderen",NA,"waterbeleid@oost-vlaanderen.be"
FALSE,FALSE,"Kouterhoek, Julianus Severinstrthv brugje","Akkersbeek",NA,NA,"YES","I_9150_1",NA,NA,"VMM_Mtp","Lotisch",NA,"Oost-Vlaanderen","Kruibeke",9150,2,3377,NA,51.1675599082309,4.30343432736272,"Oost-Vlaanderen",NA,"waterbeleid@oost-vlaanderen.be"
FALSE,FALSE,"Oude Kruibekestraat","Barbierbeek",NA,NA,"YES","I_9150_2",NA,NA,"VMM_Mtp","Lotisch",NA,"Oost-Vlaanderen","Kruibeke",9150,2,3109,NA,51.1552618316077,4.30043548977325,"Oost-Vlaanderen",NA,"waterbeleid@oost-vlaanderen.be"
FALSE,FALSE,"oude Heirbaan opw","Barbierbeek",NA,NA,"YES","I_9140_1","NIET BRUIKBAAR, te ondiep",NA,"VMM_Mtp","Lotisch",NA,"Oost-Vlaanderen","Temse",9140,2,3109,NA,51.1390191,4.1649495,"Oost-Vlaanderen",NA,"waterbeleid@oost-vlaanderen.be"
FALSE,FALSE,"Muizenhol,zandweg naast electriciteitskab. aan Luiseekstr, 70 m voorbij de Barbierbeek","Steendonkstraatbeek",NA,NA,"YES","I_9140_2",NA,NA,"VMM_Mtp","Lotisch",NA,"Oost-Vlaanderen","Temse",9140,2,3390,NA,51.165224071789,4.22356455334256,"Oost-Vlaanderen",NA,"waterbeleid@oost-vlaanderen.be"
FALSE,FALSE,"Cleydaellaan, thv. kasteel Cleydael, opw brug","Grote Struisbeek",NA,NA,"YES","I_2630_1",NA,NA,"VMM_Mtp","Lotisch",NA,"Antwerpen","Aartselaar",2630,1,3108,NA,51.1373307680202,4.362912876352,"VMM",NA,"d.slootmaekers@vmm.be"
FALSE,FALSE,"Sint-Jan-In-Eremo,Sint-Janspolderdijk,opw weg","Roeselarekreek",NA,NA,"YES","I_9982_1",NA,NA,"VMM_Mtp","Lotisch",NA,"Oost-Vlaanderen","Sint-Laureins",9982,2,2949,NA,51.266723722904,3.55650991134693,"Generale Vrije Polders","09/3799667","info@generalevrijepolders.be"
FALSE,FALSE,"Wilsele, Aarschotsestwg, afw weg","Dijle",NA,NA,"YES","I_3012_1",NA,NA,"VMM_Mtp","Lotisch",NA,"Vlaams-Brabant","Leuven",3012,1,6551,NA,50.9023927315929,4.70908953770206,"VMM",NA,"d.slootmaekers@vmm.be"
FALSE,FALSE,"Sint-Jan-In-Eremo,Brouwersweg, afw Graafjansdijk,afw weg",NA,NA,NA,"YES","I_9982_2",NA,NA,"VMM_Mtp","Lotisch",NA,"Oost-Vlaanderen","Sint-Laureins",9982,2,3008,NA,51.2486074985737,3.57449954552839,"Slependammepolders","09/3798695","griffier@slependammepolders.be"
FALSE,FALSE,"Kessel-Lo, Dijledreef, opw brug","Dijle","yjk2zjuy",NA,"YES","I_3010_1",NA,NA,"VMM_Mtp","Lotisch",NA,"Vlaams-Brabant","Leuven",3010,1,6551,NA,50.8913324,4.7102315,"VMM",NA,"d.slootmaekers@vmm.be"
FALSE,FALSE,"Wilsele, Vuurkruisenln, op bedrijventerrein AB InBev, over Dijle via weg achter fabriek, trap aan LO net afw overwelving, via trapje","Dijle",NA,NA,"YES","I_3012_2",NA,NA,"VMM_Mtp","Lotisch",NA,"Vlaams-Brabant","Leuven",3012,1,6551,NA,50.888923672517,4.71005765358826,"VMM",NA,"d.slootmaekers@vmm.be"
FALSE,FALSE,"Vaartstraat, afw brug","Dijle",NA,NA,"YES","I_3000_1",NA,NA,"VMM_Mtp","Lotisch",NA,"Vlaams-Brabant","Leuven",3000,1,6551,NA,50.8869137492914,4.70252506096913,"VMM",NA,"d.slootmaekers@vmm.be"
FALSE,FALSE,"Leuven, Tervuursesvest, afw. brug ring","Dijle",NA,NA,"YES","I_3000_2",NA,NA,"VMM_Mtp","Lotisch",NA,"Vlaams-Brabant","Leuven",3000,1,6551,NA,50.8701172900656,4.69437879123281,"VMM",NA,"d.slootmaekers@vmm.be"
FALSE,FALSE,"Heverlee, opw brug voor kasteel van Arenberg","Dijle","yjk2zjuy",NA,"YES","I_3001_1",NA,NA,"VMM_Mtp","Lotisch",NA,"Vlaams-Brabant","Leuven",3001,1,6551,NA,50.8630093,4.6835057,"VMM",NA,"d.slootmaekers@vmm.be"
FALSE,FALSE,"Heverlee, Langestr, aanmeerplaats bootjes aan LO, opw Celestijnenln en effl IMEC","Dijle",NA,NA,"YES","I_3001_2",NA,NA,"VMM_Mtp","Lotisch",NA,"Vlaams-Brabant","Leuven",3001,1,6551,NA,50.8616406440586,4.68099659601534,"VMM",NA,"d.slootmaekers@vmm.be"
FALSE,FALSE,NA,"Dijle",NA,NA,"YES","I_3040_1",NA,NA,"VMM_Mtp","Lotisch",NA,"Vlaams-Brabant","Huldenberg",3040,1,6551,NA,50.7762847016576,4.63724241297336,"VMM",NA,"d.slootmaekers@vmm.be"
FALSE,FALSE,"Reet, Bontekoe, zijweg aan Pierstraat, afw. weg","Varenloop","ntvinwe1","26/08/24","YES","I_2840_1","TE ONDIEP! bij voorkeur tussen 20/07 - 01/09",NA,"VMM_Mtp","Lotisch",NA,"Antwerpen","Rumst",2840,2,3619,NA,51.1130236,4.3889342,"Antwerpen",NA,"hans.vanloy@provincieantwerpen.be"
FALSE,FALSE,"Wolvertem, Heidestr, opw. weg","Beek",NA,NA,"YES","I_1861_1",NA,NA,"VMM_Mtp","Lotisch",NA,"Vlaams-Brabant","Meise",1861,2,349,NA,50.9481571891498,4.30144559221856,"Vlaams-Brabant",NA,"ingrid.beuls@vlaamsbrabant.be"
FALSE,FALSE,"Hogerhei, Bosbeekstr einde wegje naast Taverne De Nachtegaal, opw weg","Landbeek",NA,NA,"YES","I_1880_1",NA,NA,"VMM_Mtp","Lotisch",NA,"Vlaams-Brabant","Kapelle-op-den-Bos",1880,2,3171,NA,50.9972015927551,4.34966622919388,"Vlaams-Brabant",NA,"ingrid.beuls@vlaamsbrabant.be"
FALSE,FALSE,"Amocolaan, langs E313, opw brug en lozing Amoco","Grote Nete",NA,NA,"YES","I_2440_1",NA,NA,"VMM_Mtp","Lotisch",NA,"Antwerpen","Geel",2440,1,8501,NA,51.1165612108819,4.98530232658815,"VMM",NA,"d.slootmaekers@vmm.be"
FALSE,FALSE,"Stelen, Kemeldijk-Wilders, 300m opw duiker onder Albertkanaal","Grote Nete",NA,NA,"YES","I_2440_2",NA,NA,"VMM_Mtp","Lotisch",NA,"Antwerpen","Geel",2440,1,8501,NA,51.1275503689447,4.98786169836811,"VMM",NA,"d.slootmaekers@vmm.be"
FALSE,FALSE,"zijwegje Zandstraat, afw Tombroekloop","Grote Nete",NA,NA,"YES","I_2440_3",NA,NA,"VMM_Mtp","Lotisch",NA,"Antwerpen","Geel",2440,1,8501,NA,51.14953785217,5.02598427196293,"VMM",NA,"d.slootmaekers@vmm.be"
FALSE,FALSE,"A. Stocletlaan, opw. weg (op grens met Rumst - Lage Vosbergstraat)","Duffelse en Rumstse Scheibeek",NA,NA,"YES","I_2840_2","bij voorkeur tussen 20/07 - 01/09",NA,"VMM_Mtp","Lotisch",NA,"Antwerpen","Rumst",2840,2,9278,NA,51.0881466016566,4.4684930796194,"Antwerpen",NA,"hans.vanloy@provincieantwerpen.be"
FALSE,FALSE,"Westkapelle, Hazegrasstraat, net voorbij splitsing","Isabellavaart",NA,NA,"YES","I_8300_1",NA,NA,"VMM_Mtp","Lotisch",NA,"West-Vlaanderen","Knokke-Heist",8300,1,2125,NA,51.3283796838953,3.34234585348098,"VMM",NA,"d.slootmaekers@vmm.be"
FALSE,FALSE,"Duffelstraat, opw overstort","Bemortelloop",NA,NA,"YES","I_2860_1","bij voorkeur tussen 20/07 - 01/09",NA,"VMM_Mtp","Lotisch",NA,"Antwerpen","Sint-Katelijne-Waver",2860,2,9147,NA,51.0780082257276,4.51100890185033,"Antwerpen",NA,"hans.vanloy@provincieantwerpen.be"
FALSE,FALSE,"Mechelsesteenweg, juist onder hoogspanningslijn, opw. weg","Babbelsebeek",NA,NA,"YES","I_2550_1","bij voorkeur tussen 20/07 - 01/09",NA,"VMM_Mtp","Lotisch",NA,"Antwerpen","Kontich",2550,2,9070,NA,51.1141384006522,4.45016980927375,"Antwerpen",NA,"hans.vanloy@provincieantwerpen.be"
FALSE,FALSE,"Liersestwg, opw brug","Itterbeek",NA,NA,"YES","I_2500_2","bij voorkeur tussen 20/07 - 01/09",NA,"VMM_Mtp","Lotisch",NA,"Antwerpen","Duffel",2500,2,8526,NA,51.1103484925723,4.55684492188849,"Antwerpen",NA,"hans.vanloy@provincieantwerpen.be"
FALSE,FALSE,"Koningshooikt,Tallaart, zijweg, links aan einde verharde weg","Tallaartloop",NA,NA,"YES","I_2500_3","bij voorkeur tussen 20/07 - 01/09",NA,"VMM_Mtp","Lotisch",NA,"Antwerpen","Lier",2500,2,8917,NA,51.1019665965796,4.57030275737254,"Antwerpen",NA,"hans.vanloy@provincieantwerpen.be"
FALSE,FALSE,"bocht Haagstraat, net voorbij n°13, naast verharde weg","Haagbeek","odbjody4",NA,"YES","I_2500_4","bij voorkeur tussen 20/07 - 01/09",NA,"VMM_Mtp","Lotisch",NA,"Antwerpen","Lier",2500,2,8863,NA,51.091789,4.5767248,"Antwerpen",NA,"hans.vanloy@provincieantwerpen.be"
FALSE,FALSE,NA,"Kleine Nete",NA,NA,"YES","I_2200_1",NA,NA,"VMM_Mtp","Lotisch",NA,"Antwerpen","Herentals",2200,1,8502,NA,51.1834807843877,4.84860034637277,"VMM",NA,"d.slootmaekers@vmm.be"
FALSE,FALSE,"St-Jozef-Olen, verlenging Neerheide (einde zandweg)","Kleine Nete",NA,NA,"YES","I_2460_1",NA,NA,"VMM_Mtp","Lotisch",NA,"Antwerpen","Kasterlee",2460,1,8502,NA,51.1948086587786,4.88226364582145,"VMM",NA,"d.slootmaekers@vmm.be"
FALSE,FALSE,"Viersel; zijwegje Bergen (tgo. n°91)","Molenbeek",NA,NA,"YES","I_2240_1",NA,NA,"VMM_Mtp","Lotisch",NA,"Antwerpen","Zandhoven",2240,1,8505,NA,51.1826396,4.6486856,"VMM",NA,"d.slootmaekers@vmm.be"
FALSE,FALSE,"Pulderbos; Blauwhoef, opw(BIO) en afw(FC) brugje","Molenbeek","nzhlzwfj",NA,"YES","I_2242_1",NA,NA,"VMM_Mtp","Lotisch",NA,"Antwerpen","Zandhoven",2242,1,8505,NA,51.2053415,4.6862499,"VMM",NA,"d.slootmaekers@vmm.be"
FALSE,FALSE,"Pulsebaan, afw. klein beekje en brug","Molenbeek",NA,NA,"YES","I_2243_1",NA,NA,"VMM_Mtp","Lotisch",NA,"Antwerpen","Zandhoven",2243,1,8505,NA,51.21155547511,4.69828458236392,"VMM",NA,"d.slootmaekers@vmm.be"
FALSE,FALSE,"Halle, kruising Berkenlaan en Boshuisweg, thv van bezoekersbord","Bakelansbeek",NA,NA,"YES","I_2240_2","bij voorkeur tussen 20/07 - 01/09",NA,"VMM_Mtp","Lotisch",NA,"Antwerpen","Zoersel",2240,2,8641,NA,51.2366391510615,4.65835690587885,"Antwerpen",NA,"hans.vanloy@provincieantwerpen.be"
FALSE,FALSE,"Reebergenlaan, parallel met E34, afw brug","De Delfte Beek",NA,NA,"YES","I_2290_1","bij voorkeur tussen 20/07 - 01/09",NA,"VMM_Mtp","Lotisch",NA,"Antwerpen","Vorselaar",2290,2,8713,NA,51.2431826526888,4.74449111422198,"Antwerpen",NA,"hans.vanloy@provincieantwerpen.be"
FALSE,FALSE,"Oostmalle, St Laurentiuslaan, opw brugje","Lopende Beek","ytvhnwi0",NA,"YES","I_2390_2","bij voorkeur tussen 20/07 - 01/09",NA,"VMM_Mtp","Lotisch",NA,"Antwerpen","Malle",2390,2,8782,NA,51.2739246,4.7246583,"Antwerpen",NA,"hans.vanloy@provincieantwerpen.be"
FALSE,FALSE,"Oostmalle, D'Aesten, afw verharde weg","Aestenbeek",NA,NA,"YES","I_2390_3","bij voorkeur tussen 20/07 - 01/09",NA,"VMM_Mtp","Lotisch",NA,"Antwerpen","Malle",2390,2,8614,NA,51.2941980833941,4.76448661506633,"Antwerpen",NA,"hans.vanloy@provincieantwerpen.be"
FALSE,FALSE,"Sassenhout, Poederleesesteenweg, opw brug",NA,NA,NA,"YES","I_2290_2",NA,NA,"VMM_Mtp","Lotisch",NA,"Antwerpen","Vorselaar",2290,1,56510,NA,51.2061834756378,4.81964379132709,"VMM",NA,"d.slootmaekers@vmm.be"
FALSE,FALSE,"Tielen; Walravens, BIO afw brug & FC opw brug","De Aa",NA,NA,"YES","I_2460_3",NA,NA,"VMM_Mtp","Lotisch",NA,"Antwerpen","Kasterlee",2460,1,8504,NA,51.2429577949734,4.87248420229384,"VMM",NA,"d.slootmaekers@vmm.be"
FALSE,FALSE,"wandelpad in reservaat De Liereman, opw stuw","Lieremansloop",NA,NA,"YES","I_2360_1","bij voorkeur tussen 20/07 - 01/09",NA,"VMM_Mtp","Lotisch",NA,"Antwerpen","Oud-Turnhout",2360,2,8728,NA,51.3371295079988,5.01153318685332,"Antwerpen",NA,"hans.vanloy@provincieantwerpen.be"
FALSE,FALSE,"zandweg, opw reservaat De Liereman, thv brugje","Brakeleerloop",NA,NA,"YES","I_2360_2","bij voorkeur tussen 20/07 - 01/09",NA,"VMM_Mtp","Lotisch",NA,"Antwerpen","Oud-Turnhout",2360,2,43667,NA,51.3343258542391,5.01470851297278,"Antwerpen",NA,"hans.vanloy@provincieantwerpen.be"
FALSE,FALSE,"Halve Rooien, zijweg Zanddijkstr, opw brug","Desselse Neet",NA,NA,"YES","I_2480_1","bij voorkeur tussen 20/07 - 01/09",NA,"VMM_Mtp","Lotisch",NA,"Antwerpen","Dessel",2480,2,8710,NA,51.2623832471822,5.15007126774899,"Antwerpen",NA,"hans.vanloy@provincieantwerpen.be"
FALSE,FALSE,"Hellestraat, afw brug","Visbeek",NA,NA,"YES","I_2560_1","bij voorkeur tussen 20/07 - 01/09",NA,"VMM_Mtp","Lotisch",NA,"Antwerpen","Nijlen",2560,2,8870,NA,51.1376513735818,4.66424271615868,"Antwerpen",NA,"hans.vanloy@provincieantwerpen.be"
FALSE,FALSE,"Herlaar, aan kasteel van Herlaar, afw brug en verval(BIO), opw brug(FC)","Wimp",NA,NA,"YES","I_2270_1",NA,NA,"VMM_Mtp","Lotisch",NA,"Antwerpen","Herenthout",2270,1,8507,NA,51.1220767,4.7436798,"VMM",NA,"d.slootmaekers@vmm.be"
FALSE,FALSE,"Wiekevorst;Valleistraat, (FC) opw en (Bio) afw brug en verval","Wimp",NA,NA,"YES","I_2222_1",NA,NA,"VMM_Mtp","Lotisch",NA,"Antwerpen","Heist-op-den-Berg",2222,1,8507,NA,51.1155493725477,4.79811729682034,"VMM",NA,"d.slootmaekers@vmm.be"
FALSE,FALSE,"Wiekevorst; Morkhovenseweg-Wiekevorstseweg, opw brug en overstort","Wimp",NA,NA,"YES","I_2222_2",NA,NA,"VMM_Mtp","Lotisch",NA,"Antwerpen","Heist-op-den-Berg",2222,1,8507,NA,51.1113552567229,4.80687517124659,"VMM",NA,"d.slootmaekers@vmm.be"
FALSE,FALSE,"Rossem, Wouwerkenshof, afw brug","Stapkensloop",NA,NA,"YES","I_2200_2","bij voorkeur tussen 20/07 - 01/09",NA,"VMM_Mtp","Lotisch",NA,"Antwerpen","Herentals",2200,2,9153,NA,51.1528545355561,4.81938533348492,"Antwerpen",NA,"hans.vanloy@provincieantwerpen.be"
FALSE,FALSE,"Ramsel; Ramselsestwg (zijstraat), opw brug","Raamdonksebeek","yjbjnzi1","TBD","YES","I_2230_1","bij voorkeur tussen 20/07 - 01/09",NA,"VMM_Mtp","Lotisch",NA,"Antwerpen","Herselt",2230,2,8657,NA,51.0393323,4.8490454,"Antwerpen",NA,"hans.vanloy@provincieantwerpen.be"
FALSE,FALSE,"Varendonk; Blaardonk-Trichelhoek, opw. brug","Grote Laak",NA,NA,"YES","I_2431_1",NA,NA,"VMM_Mtp","Lotisch",NA,"Antwerpen","Laakdal",2431,1,8503,NA,51.0870574694784,4.95569651110529,"VMM",NA,"d.slootmaekers@vmm.be"
FALSE,FALSE,"Vorsterweg,  afw brug","Grote Laak",NA,NA,"YES","I_3980_1",NA,NA,"VMM_Mtp","Lotisch",NA,"Limburg","Tessenderlo",3980,1,8503,NA,51.0819167298938,5.09423482329304,"VMM",NA,"d.slootmaekers@vmm.be"
FALSE,FALSE,"Weversstraat, opw brug","Molse Nete",NA,NA,"YES","I_2400_1",NA,NA,"VMM_Mtp","Lotisch",NA,"Antwerpen","Mol",2400,1,8506,NA,51.1724435376114,5.07842709227871,"VMM",NA,"d.slootmaekers@vmm.be"
FALSE,FALSE,"Drogenbos, De Bruyckerweg, thv koeltorens, opw brug","Zenne",NA,NA,"YES","I_1620_1",NA,NA,"VMM_Mtp","Lotisch",NA,"Vlaams-Brabant","Drogenbos",1620,1,6552,NA,50.8017547826015,4.30081590711477,"VMM",NA,"d.slootmaekers@vmm.be"
FALSE,FALSE,"Drogenbos, Humaniteitslaan, afw brug","Zenne",NA,NA,"YES","I_1620_2",NA,NA,"VMM_Mtp","Lotisch",NA,"Vlaams-Brabant","Drogenbos",1620,1,6552,NA,50.7952925067234,4.30306618658252,"VMM",NA,"d.slootmaekers@vmm.be"
FALSE,FALSE,"Ruisbroek, Broekweg, opw brug","Zenne",NA,NA,"YES","I_1601_1",NA,NA,"VMM_Mtp","Lotisch",NA,"Vlaams-Brabant","Sint-Pieters-Leeuw",1601,1,6552,NA,50.7911317305643,4.30569570915198,"VMM",NA,"d.slootmaekers@vmm.be"
FALSE,FALSE,"Lembeek, Perregatstr, opw brug","Zenne",NA,NA,"YES","I_1502_2",NA,NA,"VMM_Mtp","Lotisch",NA,"Vlaams-Brabant","Halle",1502,1,6552,NA,50.7096674442476,4.21761279939762,"VMM",NA,"d.slootmaekers@vmm.be"
FALSE,FALSE,"Ertvelde,Hoek,Hoogstraat","Molenvaardeken",NA,NA,"YES","I_9940_1",NA,NA,"VMM_Mtp","Lotisch",NA,"Oost-Vlaanderen","Evergem",9940,1,604,NA,51.1574250201179,3.74056446446658,"VMM",NA,"d.slootmaekers@vmm.be"
FALSE,FALSE,"Laar, Humbeeksebaan, weg naar KWZI, 10 m OPW lozing KWZI","Laarbeek",NA,NA,"YES","I_1980_1",NA,NA,"VMM_Mtp","Lotisch",NA,"Vlaams-Brabant","Zemst",1980,2,6966,NA,50.9866433558941,4.40700759377832,"Vlaams-Brabant",NA,"ingrid.beuls@vlaamsbrabant.be"
FALSE,FALSE,"Zijbeek Laerebeek, Hombeek, Rechtestr, langs afspanning, 15m opw wegje en LP","Laarbeek",NA,NA,"YES","I_2811_1","bij voorkeur tussen 20/07 - 01/09",NA,"VMM_Mtp","Lotisch",NA,"Antwerpen","Mechelen",2811,2,6972,NA,51.0059161043764,4.4067101692076,"Antwerpen",NA,"hans.vanloy@provincieantwerpen.be"
FALSE,FALSE,"Zijbeek, Tangebeek, Eppegem, Dorentstraat, afw weg, opw houten dam","Beek",NA,NA,"YES","I_1980_2",NA,NA,"VMM_Mtp","Lotisch",NA,"Vlaams-Brabant","Zemst",1980,2,6996,NA,50.9535553070592,4.44206123259683,"Heyens Veerle",NA,"recreatie.vbr.anb@vlaanderen.be"
FALSE,FALSE,"Kraainem, Molenstr, langs straat en opw 3+1 PVC-buizen","Kleine Maelbeek",NA,NA,"YES","I_1950_1",NA,NA,"VMM_Mtp","Lotisch",NA,"Vlaams-Brabant","Kraainem",1950,1,6573,NA,50.865305969566,4.45629768071192,"VMM",NA,"d.slootmaekers@vmm.be"
FALSE,FALSE,"Zellik, Molenbeekdal / T. Coppensstraat, via wandelweg tot 100 m opw brugje, 10 m opw effluent Puratos","Maalbeek","ztc4ymy0",NA,"YES","I_1731_1",NA,NA,"VMM_Mtp","Lotisch",NA,"Vlaams-Brabant","Asse",1731,2,6960,NA,50.8825544,4.2658569,"Vlaams-Brabant",NA,"ingrid.beuls@vlaamsbrabant.be"
FALSE,FALSE,"Sint-Pieters-Leeuw/Anderlecht, Zuunstr, opw brugje","Vogel(en)zangbeek",NA,NA,"YES","I_1600_1",NA,NA,"VMM_Mtp","Lotisch",NA,"Vlaams-Brabant","Sint-Pieters-Leeuw",1600,1,7116,NA,50.8086448561658,4.2926622292763,"VMM",NA,"d.slootmaekers@vmm.be"
FALSE,FALSE,"Negenmanneke, einde Zuunstr, voor inbuizing onder kanaal, 50 m opw weg + LZP, afw brugje","Zuunbeek",NA,NA,"YES","I_1600_2",NA,NA,"VMM_Mtp","Lotisch",NA,"Vlaams-Brabant","Sint-Pieters-Leeuw",1600,1,6554,NA,50.8095732563686,4.29660504321332,"VMM",NA,"d.slootmaekers@vmm.be"
FALSE,FALSE,"Sint-Pieters-Leeuw, A. Van Cothemstr, opw brug (enkel FC als overstort niet werkt)","Zuunbeek",NA,NA,"YES","I_1600_3",NA,NA,"VMM_Mtp","Lotisch",NA,"Vlaams-Brabant","Sint-Pieters-Leeuw",1600,1,6554,NA,50.8019253967853,4.28637448784319,"VMM",NA,"d.slootmaekers@vmm.be"
FALSE,FALSE,"Kester, 200 m afw Hof ter Molleken, in bocht onverharde weg (verbinding tss Ter Mollekensstr en Zwaantje)","Zuunbeek",NA,NA,"YES","I_1755_1",NA,NA,"VMM_Mtp","Lotisch",NA,"Vlaams-Brabant","Gooik",1755,2,6554,NA,50.7568842209142,4.13643890453304,"Vlaams-Brabant",NA,"ingrid.beuls@vlaamsbrabant.be"
FALSE,FALSE,NA,"Zuunbeek",NA,NA,"YES","I_1755_2",NA,NA,"VMM_Mtp","Lotisch",NA,"Vlaams-Brabant","Gooik",1755,2,6554,NA,50.7610349744261,4.10947450697451,"Vlaams-Brabant",NA,"ingrid.beuls@vlaamsbrabant.be"
FALSE,FALSE,"Leerbeek, Putbeekstr, 5 m opw weg in wei, opw betonnen ""brugje"" en lozingsbuis","Putbeek",NA,NA,"YES","I_1755_3",NA,NA,"VMM_Mtp","Lotisch",NA,"Vlaams-Brabant","Gooik",1755,9,6884,NA,50.7729067971893,4.14249878609516,NA,NA,NA
FALSE,FALSE,"Herfelingen, Mollestr, 50 m van bord ""bebouwde kom"", opw weg + zijgrachtjes","Rasbeek",NA,NA,"YES","I_1540_1",NA,NA,"VMM_Mtp","Lotisch",NA,"Vlaams-Brabant","Herne",1540,9,6571,NA,50.7461156057927,4.10308111922456,NA,NA,NA
FALSE,FALSE,"Industrie Noord, Zandvoortstr, naast containerpark afw weg","Vrouwvliet",NA,NA,"YES","I_2800_1",NA,NA,"VMM_Mtp","Lotisch",NA,"Antwerpen","Mechelen",2800,1,6553,NA,51.0484016294233,4.45196539450509,"VMM",NA,"d.slootmaekers@vmm.be"
FALSE,FALSE,"Muizen, Muizenhoekstr, opw brug","Vrouwvliet",NA,NA,"YES","I_2820_1",NA,NA,"VMM_Mtp","Lotisch",NA,"Antwerpen","Bonheiden",2820,1,6553,NA,51.0212931248921,4.52788153236581,"VMM",NA,"d.slootmaekers@vmm.be"
FALSE,FALSE,"Keerbergen, Bakestraat, aan bakkerij DITS, opw weg","Vrouwvliet",NA,NA,"YES","I_3140_1",NA,NA,"VMM_Mtp","Lotisch",NA,"Vlaams-Brabant","Keerbergen",3140,2,6553,NA,51.0104589766888,4.6296111560739,"Vlaams-Brabant",NA,"ingrid.beuls@vlaamsbrabant.be"
FALSE,FALSE,"St-Katelijne-Waver, Kempenaerstr, tov Green partners, opw weg, opw overstort","Otterbeek",NA,NA,"YES","I_2860_2","bij voorkeur tussen 20/07 - 01/09",NA,"VMM_Mtp","Lotisch",NA,"Antwerpen","Sint-Katelijne-Waver",2860,2,6949,NA,51.0649904082701,4.51971394669138,"Antwerpen",NA,"hans.vanloy@provincieantwerpen.be"
FALSE,FALSE,"Peulis, Mechelbaan (N15), doodlopend zijwegje, inrit huis nr 664, 3 m opw brugje+lozing","Waversebeek",NA,NA,"YES","I_2580_1","bij voorkeur tussen 20/07 - 01/09",NA,"VMM_Mtp","Lotisch",NA,"Antwerpen","Putte",2580,2,6702,NA,51.0392320947857,4.59070552212555,"Antwerpen",NA,"hans.vanloy@provincieantwerpen.be"
FALSE,FALSE,"Muizen, Stwg Leuven-Mechelen, langs domein Planckendael, opw weg, to kapsalon ZEN","Barebeek",NA,NA,"YES","I_2812_1",NA,NA,"VMM_Mtp","Lotisch",NA,"Antwerpen","Mechelen",2812,1,6560,NA,51.0040116013508,4.51763594118451,"VMM",NA,"d.slootmaekers@vmm.be"
FALSE,FALSE,"Kampenhout, Beemdstr, dienstweg Aquafin, opw brug (FC), afw brug (BBI)","Weesbeek",NA,NA,"YES","I_1910_1",NA,NA,"VMM_Mtp","Lotisch",NA,"Vlaams-Brabant","Kampenhout",1910,2,6559,NA,50.9553951764588,4.56265414836486,"Vlaams-Brabant",NA,"ingrid.beuls@vlaamsbrabant.be"
FALSE,FALSE,"Haacht/Boortmeerbeek, Spoorwegstr, voor kilometerpaal 50 aan spoorweg, afw brug","Leibeek",NA,NA,"YES","I_3150_1",NA,NA,"VMM_Mtp","Lotisch",NA,"Vlaams-Brabant","Haacht",3150,2,6558,NA,50.9702346214281,4.60300590840377,"Vlaams-Brabant",NA,"ingrid.beuls@vlaamsbrabant.be"
FALSE,FALSE,"Wespelaar, Wespelaarsestwg, afw weg","Leibeek",NA,NA,"YES","I_3150_2",NA,NA,"VMM_Mtp","Lotisch",NA,"Vlaams-Brabant","Haacht",3150,2,6558,NA,50.9629214162643,4.63875507668819,"Vlaams-Brabant",NA,"ingrid.beuls@vlaamsbrabant.be"
FALSE,FALSE,"Webbekom, Badstraat, afw brug","Demer",NA,NA,"YES","I_3290_1",NA,NA,"VMM_Mtp","Lotisch",NA,"Vlaams-Brabant","Diest",3290,1,7151,NA,50.9841849841076,5.07483301015841,"VMM",NA,"d.slootmaekers@vmm.be"
FALSE,FALSE,"Kuringen, Albertkanaalstr/Roderokstr, weg nr RWZI, opw brug","Demer",NA,NA,"YES","I_3511_1",NA,NA,"VMM_Mtp","Lotisch",NA,"Limburg","Hasselt",3511,1,7151,NA,50.9537513579611,5.30095761956552,"VMM",NA,"d.slootmaekers@vmm.be"
FALSE,FALSE,"Munsterbilzen, Rentfortstr, thv Rentfortmolen, afw brug","Demer",NA,NA,"YES","I_3740_1",NA,NA,"VMM_Mtp","Lotisch",NA,"Limburg","Bilzen",3740,1,7151,NA,50.8922039931998,5.49764291358187,"VMM",NA,"d.slootmaekers@vmm.be"
FALSE,FALSE,"'s Herenelderen, Lindebornstr, afw weg en overstort","Demer",NA,NA,"YES","I_3700_3",NA,NA,"VMM_Mtp","Lotisch",NA,"Limburg","Tongeren",3700,2,7151,NA,50.8107811727945,5.4999731325283,"Limburg",NA,"christel.bouchet@limburg.be"
FALSE,FALSE,"Rotselaar- Heikant, Vakenstraat, opw brug","Winge",NA,NA,"YES","I_3110_1",NA,NA,"VMM_Mtp","Lotisch",NA,"Vlaams-Brabant","Rotselaar",3110,1,7156,NA,50.9630929018863,4.71997929816852,"VMM",NA,"d.slootmaekers@vmm.be"
FALSE,FALSE,"Rotselaar, Wezemaal, Aarschotsestwg, opw weg, Montfortcollege","Winge","ytgxmjc1",NA,"YES","I_3110_2",NA,NA,"VMM_Mtp","Lotisch",NA,"Vlaams-Brabant","Rotselaar",3110,1,7156,NA,50.9399795,4.738117,"VMM",NA,"d.slootmaekers@vmm.be"
FALSE,FALSE,"Rillaar, aardeweg op kruising Hompelstr/Rommelaar, afw brugje","Laarbeek","zjlmntu5",NA,"YES","I_3272_1",NA,NA,"VMM_Mtp","Lotisch",NA,"Vlaams-Brabant","Scherpenheuvel-Zichem",3272,2,7480,NA,50.9950968,4.9030628,"Vlaams-Brabant",NA,"ingrid.beuls@vlaamsbrabant.be"
FALSE,FALSE,"Zichem, Ernest Claesstr, 275 m van spooroverweg, opw weg","De Hulpe",NA,NA,"YES","I_3271_2",NA,NA,"VMM_Mtp","Lotisch",NA,"Vlaams-Brabant","Scherpenheuvel-Zichem",3271,1,7360,NA,51.0085621243628,4.99091816802977,"VMM",NA,"d.slootmaekers@vmm.be"
FALSE,FALSE,"Molenstede, Klappijstr, via oprit huis nr 92, over brugje, 100 m rechtdoor door wei, LO","Grotebeek","ymq3yzm1","15/07/24","YES","I_3294_1",NA,NA,"VMM_Mtp","Lotisch",NA,"Vlaams-Brabant","Diest",3294,1,7751,NA,51.0106218,5.0460201,"VMM",NA,"d.slootmaekers@vmm.be"
FALSE,FALSE,"Deurne, Melrijk, opw weg","Grotebeek",NA,NA,"YES","I_3290_2",NA,NA,"VMM_Mtp","Lotisch",NA,"Vlaams-Brabant","Diest",3290,1,7751,NA,51.0447945437331,5.12083869427918,"VMM",NA,"d.slootmaekers@vmm.be"
FALSE,FALSE,"Tessenderlo, zijstraat industrieweg, afw brug","Grotebeek",NA,NA,"YES","I_3980_2",NA,NA,"VMM_Mtp","Lotisch",NA,"Limburg","Tessenderlo",3980,1,7751,NA,51.0541807725925,5.12903403098653,"VMM",NA,"d.slootmaekers@vmm.be"
FALSE,FALSE,"Webbekom, Reustr, opw weg en samenvloeiing zijbeekje","Begijnebeek",NA,NA,"YES","I_3290_3",NA,NA,"VMM_Mtp","Lotisch",NA,"Vlaams-Brabant","Diest",3290,1,69502,NA,50.9720673989495,5.04419540722589,"VMM",NA,"d.slootmaekers@vmm.be"
FALSE,FALSE,"Meensel/Kapellen, aan  grensbord Kapellen / Glabbeek, Tiensebaan/Stationstr, langs weg, voor samenvloeiing met Dorpswaterloop","Begijnebeek",NA,NA,"YES","I_3381_1",NA,NA,"VMM_Mtp","Lotisch",NA,"Vlaams-Brabant","Glabbeek",3381,9,7163,NA,50.8947997000191,4.9451173094046,NA,NA,NA
FALSE,FALSE,"Zelem, Oudeschansstraat, opw weg","Zwarte Beek",NA,NA,"YES","I_3545_1",NA,NA,"VMM_Mtp","Lotisch",NA,"Limburg","Halen",3545,2,7157,NA,50.9805706894435,5.09555546867319,"Limburg",NA,"christel.bouchet@limburg.be"
FALSE,FALSE,"Gestel, Sint-Lutgardisstr","Zwarte Beek",NA,NA,"YES","I_3560_1",NA,NA,"VMM_Mtp","Lotisch",NA,"Limburg","Lummen",3560,1,7157,NA,51.0139241975792,5.17517966384059,"VMM",NA,"d.slootmaekers@vmm.be"
FALSE,FALSE,"Zelk, zijstraat Zelemstraat, afw brug","Velpe",NA,NA,"YES","I_3545_2",NA,NA,"VMM_Mtp","Lotisch",NA,"Limburg","Halen",3545,1,7155,NA,50.9627930300943,5.0905678089578,"VMM",NA,"d.slootmaekers@vmm.be"
FALSE,FALSE,"Halen, Mosstraat, aardeweg tussen Rwzi en Gete, 100 m afw. lozing RWZI, net voor monding in Demer (opletten voor terugstroming bij hoge Demerstand)","Gete",NA,NA,"YES","I_3545_3",NA,NA,"VMM_Mtp","Lotisch",NA,"Limburg","Halen",3545,1,7162,NA,50.9584891298428,5.11468485645714,"VMM",NA,"d.slootmaekers@vmm.be"
FALSE,FALSE,"Halen, Mosstraat, afw. brug, na samenvloeiing met Herk","Gete",NA,NA,"YES","I_3545_4",NA,NA,"VMM_Mtp","Lotisch",NA,"Limburg","Halen",3545,1,7162,NA,50.9579214207441,5.11631269668584,"VMM",NA,"d.slootmaekers@vmm.be"
FALSE,FALSE,"Ertsenrijk, zijweg Ertsenrijkstr (langs nr 104), opw brug","Gete",NA,NA,"YES","I_3545_5",NA,NA,"VMM_Mtp","Lotisch",NA,"Limburg","Halen",3545,1,7162,NA,50.9252866736006,5.12783992371196,"VMM",NA,"d.slootmaekers@vmm.be"
FALSE,FALSE,"Geetbets, Kasteellaan, opw brug","Gete",NA,NA,"YES","I_3450_1",NA,NA,"VMM_Mtp","Lotisch",NA,"Vlaams-Brabant","Geetbets",3450,9,7162,NA,50.9000983897389,5.12765979455429,NA,NA,NA
FALSE,FALSE,"Budingen, Leeuwerstr (betonnen fietspad), opw brug","Kleine Gete",NA,NA,"YES","I_3440_1",NA,NA,"VMM_Mtp","Lotisch",NA,"Vlaams-Brabant","Zoutleeuw",3440,1,7161,NA,50.8550982566469,5.10886678303669,"VMM",NA,"d.slootmaekers@vmm.be"
FALSE,FALSE,"Ezemaal, Broekstr, opw brug","Kleine Gete",NA,NA,"YES","I_3400_1",NA,NA,"VMM_Mtp","Lotisch",NA,"Vlaams-Brabant","Landen",3400,1,7161,NA,50.7750454854622,5.00264493360332,"VMM",NA,"d.slootmaekers@vmm.be"
FALSE,FALSE,"Grazen, Galgestr, opw brug","Melsterbeek",NA,NA,"YES","I_3454_1",NA,NA,"VMM_Mtp","Lotisch",NA,"Vlaams-Brabant","Geetbets",3454,1,7154,NA,50.8605256853806,5.14808506273046,"VMM",NA,"d.slootmaekers@vmm.be"
FALSE,FALSE,"Runkelen:Binderveldseweg/Binderveld:Molenstr, opw brug","Melsterbeek",NA,NA,"YES","I_3850_1",NA,NA,"VMM_Mtp","Lotisch",NA,"Limburg","Nieuwerkerken",3850,1,7154,NA,50.8561146999089,5.15970089944105,"VMM",NA,"d.slootmaekers@vmm.be"
FALSE,FALSE,"Boekhout  onverhard verlengde Walenstr, in bocht, 3 m afw weg","Melsterbeek",NA,NA,"YES","I_3890_1",NA,NA,"VMM_Mtp","Lotisch",NA,"Limburg","Gingelom",3890,2,7154,NA,50.7422990778551,5.2309841486381,"Limburg",NA,"christel.bouchet@limburg.be"
FALSE,FALSE,"Muizen, Kaneelstraat, opw. brug en riool","Cicindria",NA,NA,"YES","I_3891_1",NA,NA,"VMM_Mtp","Lotisch",NA,"Limburg","Gingelom",3891,2,7229,NA,50.7602977506053,5.17684256593987,"Limburg",NA,"christel.bouchet@limburg.be"
FALSE,FALSE,"Zepperen,Terwouwenstr (N767), schuin tov huis nr 37 Shell Gaz, afw weg","Bergbeek",NA,NA,"YES","I_3800_1",NA,NA,"VMM_Mtp","Lotisch",NA,"Limburg","Sint-Truiden",3800,2,7276,NA,50.8293896960208,5.2631017829374,"Limburg",NA,"christel.bouchet@limburg.be"
FALSE,FALSE,"Zepperen  Terstok, Keelstr/Stokstr, opw weg","Logebeek",NA,NA,"YES","I_3800_2",NA,NA,"VMM_Mtp","Lotisch",NA,"Limburg","Sint-Truiden",3800,2,7858,NA,50.840039719488,5.23967852405311,"Limburg",NA,"christel.bouchet@limburg.be"
FALSE,FALSE,"Budingen,aarden zijweg Molenstr thv hoek Steengrachtstr, opw brug","Grote Gete",NA,NA,"YES","I_3440_2",NA,NA,"VMM_Mtp","Lotisch",NA,"Vlaams-Brabant","Zoutleeuw",3440,1,7153,NA,50.854453377195,5.09265171682633,"VMM",NA,"d.slootmaekers@vmm.be"
FALSE,FALSE,"Utsenaken, Melkweg, opw brug","Grote Gete",NA,NA,"YES","I_3300_1",NA,NA,"VMM_Mtp","Lotisch",NA,"Vlaams-Brabant","Tienen",3300,99,7153,NA,50.8204638208272,4.99071205763168,NA,NA,NA
FALSE,FALSE,"Oplinter, Oude Getestr, RO thv kruising/splitsing met zijweg","Grote Gete",NA,NA,"YES","I_3300_2",NA,NA,"VMM_Mtp","Lotisch",NA,"Vlaams-Brabant","Tienen",3300,1,7153,NA,50.8101467412029,4.97291046245308,"VMM",NA,"d.slootmaekers@vmm.be"
FALSE,FALSE,"Tienen, Oude Getestraat, opw. brug naar RWZI","Grote Gete",NA,NA,"YES","I_3300_3",NA,NA,"VMM_Mtp","Lotisch",NA,"Vlaams-Brabant","Tienen",3300,1,7153,NA,50.805389,4.9680682,"VMM",NA,"d.slootmaekers@vmm.be"
FALSE,FALSE,"Tienen, Ambachtenlaan, afw. brug","Grote Gete",NA,NA,"YES","I_3300_4",NA,NA,"VMM_Mtp","Lotisch",NA,"Vlaams-Brabant","Tienen",3300,1,7153,NA,50.8057143597223,4.96243991481908,"VMM",NA,"d.slootmaekers@vmm.be"
FALSE,FALSE,"Tienen, St.-Helenavest, afw brug","Grote Gete",NA,NA,"YES","I_3300_5",NA,NA,"VMM_Mtp","Lotisch",NA,"Vlaams-Brabant","Tienen",3300,1,7153,NA,50.8020714937466,4.93563853422797,"VMM",NA,"d.slootmaekers@vmm.be"
FALSE,FALSE,"Tienen, Pastoorstr, opw weg","Grote Gete",NA,NA,"YES","I_3300_6",NA,NA,"VMM_Mtp","Lotisch",NA,"Vlaams-Brabant","Tienen",3300,1,7153,NA,50.7891246255405,4.91898831261601,"VMM",NA,"d.slootmaekers@vmm.be"
FALSE,FALSE,"Hoegaarden, Stationstr, opw brug","Grote Gete","ytfmywnh",NA,"YES","I_3320_1",NA,NA,"VMM_Mtp","Lotisch",NA,"Vlaams-Brabant","Hoegaarden",3320,1,7153,NA,50.773721,4.8984205,"VMM",NA,"d.slootmaekers@vmm.be"
FALSE,FALSE,"Hoegaarden, Stationsstraat, via kleine betonweg tot aan Vissersclub ""Grand Pont"", achter vijvers tot aan voetgangersbrug, afw brug","Grote Gete",NA,NA,"YES","I_3320_3",NA,NA,"VMM_Mtp","Lotisch",NA,"Vlaams-Brabant","Hoegaarden",3320,1,7153,NA,50.7704805518092,4.89533604050706,"VMM",NA,"d.slootmaekers@vmm.be"
FALSE,FALSE,"Willebringen, Torenhofstr, opw weg en monding Kleine Fonteinbeek","Fonteinbeek",NA,NA,"YES","I_3370_1",NA,NA,"VMM_Mtp","Lotisch",NA,"Vlaams-Brabant","Boutersem",3370,2,7914,NA,50.8115286757685,4.84267234490994,"Vlaams-Brabant",NA,"ingrid.beuls@vlaamsbrabant.be"
FALSE,FALSE,"Zoutleeuw, Koepoortstr, Molenbeek, opw brug","Dormaalbeek",NA,NA,"YES","I_3440_3",NA,NA,"VMM_Mtp","Lotisch",NA,"Vlaams-Brabant","Zoutleeuw",3440,1,7160,NA,50.8250521170117,5.09621547241959,"VMM",NA,"d.slootmaekers@vmm.be"
FALSE,FALSE,"Rumsdorp, Beemdenstr, opw RWZI, afw brug + LZP","Dormaalbeek",NA,NA,"YES","I_3400_2",NA,NA,"VMM_Mtp","Lotisch",NA,"Vlaams-Brabant","Landen",3400,2,7160,NA,50.7668454,5.0794809,"Vlaams-Brabant",NA,"ingrid.beuls@vlaamsbrabant.be"
FALSE,FALSE,"Walsbets, Karolingerslaan,opw weg","De Zeyb",NA,NA,"YES","I_3400_3",NA,NA,"VMM_Mtp","Lotisch",NA,"Vlaams-Brabant","Landen",3400,2,7274,NA,50.7443534430558,5.07032801693149,"Vlaams-Brabant",NA,"ingrid.beuls@vlaamsbrabant.be"
FALSE,FALSE,"Gulkenveld, Hondsblokstr, thv bocht, 7m van de weg, afw brugje","Oude Herk 202bis",NA,NA,"YES","I_3540_1",NA,NA,"VMM_Mtp","Lotisch",NA,"Limburg","Herk-de-Stad",3540,1,7920,NA,50.9474888081476,5.1741075982955,"VMM",NA,"d.slootmaekers@vmm.be"
FALSE,FALSE,"Stevoort, Stevoortse Kiezel, afw weg","Kleine Herk",NA,NA,"YES","I_3512_1",NA,NA,"VMM_Mtp","Lotisch",NA,"Limburg","Hasselt",3512,1,7812,NA,50.9185220339482,5.24702396203426,"VMM",NA,"d.slootmaekers@vmm.be"
FALSE,FALSE,"Alken, Meerdegatstr, tss kruising met Expressweg Sint-Truiden en Jardinstr, opw weg","Kleine Herk",NA,NA,"YES","I_3570_1",NA,NA,"VMM_Mtp","Lotisch",NA,"Limburg","Alken",3570,1,7812,NA,50.8886293,5.3075097,"VMM",NA,"d.slootmaekers@vmm.be"
FALSE,FALSE,"Sint-Lambrechts-Herk, opw Bekstr","Mombeek","mme2yzg2",NA,"YES","I_3500_2",NA,NA,"VMM_Mtp","Lotisch",NA,"Limburg","Hasselt",3500,1,7159,NA,50.8883133,5.3243742,"VMM",NA,"d.slootmaekers@vmm.be"
FALSE,FALSE,"Wimmertingen, Luikerstwg, opw weg","Mombeek",NA,NA,"YES","I_3501_1",NA,NA,"VMM_Mtp","Lotisch",NA,"Limburg","Hasselt",3501,1,7159,NA,50.8852737,5.352751,"VMM",NA,"d.slootmaekers@vmm.be"
FALSE,FALSE,"Jesseren, Broekstraat, onverharde weg tussen huisnr. 18-20, 300 m tot einde voetbalveld, 100 m tot Mombeek, 100 m verder afw. bemonsteren.","Mombeek",NA,NA,"YES","I_3700_4",NA,NA,"VMM_Mtp","Lotisch",NA,"Limburg","Tongeren",3700,2,7159,NA,50.8087327323981,5.40357791122362,"Limburg",NA,"christel.bouchet@limburg.be"
FALSE,FALSE,"Jesseren, Broekstraat, onverharde weg tussen huisnr. 18-20, 300 m tot einde voetbalveld, 100 m tot Mombeek, via brugje,  50 m opw. tot aan overbrugging","Mombeek",NA,NA,"YES","I_3840_1",NA,NA,"VMM_Mtp","Lotisch",NA,"Limburg","Borgloon",3840,2,7159,NA,50.807188676147,5.40331690429997,"Limburg",NA,"christel.bouchet@limburg.be"
FALSE,FALSE,"Jesseren, Jesserenstr,opw weg en LP, aan grensbord Jesseren-Borgloon","Sint-Annabeek",NA,NA,"YES","I_3840_2",NA,NA,"VMM_Mtp","Lotisch",NA,"Limburg","Borgloon",3840,2,7526,NA,50.8115765955959,5.37748820079572,"Limburg",NA,"christel.bouchet@limburg.be"
FALSE,FALSE,"Broekom, zijweg Sassenbroekstr, in 2de bocht thv huis nr 7, achteraan privé-oprit, na samenvloeiing","Sassenbroekbeek",NA,NA,"YES","I_3840_3",NA,NA,"VMM_Mtp","Lotisch",NA,"Limburg","Borgloon",3840,2,7768,NA,50.7781484895268,5.3404849855363,"Limburg",NA,"christel.bouchet@limburg.be"
FALSE,FALSE,"Moerke,Achterdreef, opw weg","Moerkensbeek",NA,NA,"YES","I_9180_1",NA,NA,"VMM_Mtp","Lotisch",NA,"Oost-Vlaanderen","Moerbeke",9180,2,3010,NA,51.1997660925445,3.96115482387667,"Moerbeke-Polder","09/342 72 91","moerbekepolder@skynet.be"
FALSE,FALSE,"Lummen, oostelijk stuk van de Mangelbeekstr, langs weggetje, opw weg","Mangelbeek",NA,NA,"YES","I_3560_2",NA,NA,"VMM_Mtp","Lotisch",NA,"Limburg","Lummen",3560,1,7196,NA,50.9793244521599,5.18668817147749,"VMM",NA,"d.slootmaekers@vmm.be"
FALSE,FALSE,"Heusden, Mangelbeekstr, opw fietspad op dijk","Mangelbeek",NA,NA,"YES","I_3550_1",NA,NA,"VMM_Mtp","Lotisch",NA,"Limburg","Heusden-Zolder",3550,9,7196,NA,51.0119482460628,5.25129947752044,NA,NA,NA
FALSE,FALSE,"Helchteren, Sonnisweg, 50 m voor verboden ingang ""Militair domein"", opw weg en zijgrachtjes","Schansbeek",NA,NA,"YES","I_3530_1",NA,NA,"VMM_Mtp","Lotisch",NA,"Limburg","Houthalen-Helchteren",3530,2,7260,NA,51.0600757880361,5.42222181823689,"Limburg",NA,"christel.bouchet@limburg.be"
FALSE,FALSE,"Zonhoven, Kriekelstr, afw weg","Laambeek",NA,NA,"YES","I_3520_1",NA,NA,"VMM_Mtp","Lotisch",NA,"Limburg","Zonhoven",3520,2,7623,NA,51.0117373754202,5.34184303016959,"Limburg",NA,"christel.bouchet@limburg.be"
FALSE,FALSE,"Rode Sluis,Kruisstraat","Grote Kreek",NA,NA,"YES","I_9180_2",NA,NA,"VMM_Mtp","Lotisch",NA,"Oost-Vlaanderen","Moerbeke",9180,2,2820,NA,51.2156366223718,3.92283219238733,"Moerbeke-Polder","09/342 72 91","moerbekepolder@skynet.be"
FALSE,FALSE,"Pereboomsteenweg,thv veldweg landbouwbedrijf","Watergang van de Moerbekepolder",NA,NA,"YES","I_9180_3",NA,NA,"VMM_Mtp","Lotisch",NA,"Oost-Vlaanderen","Moerbeke",9180,2,2872,NA,51.2128438228136,3.97423547610098,"Moerbeke-Polder","09/342 72 91","moerbekepolder@skynet.be"
FALSE,FALSE,"Diepenbeek, Diepenbekerbos,150 m vanaf brug,100 m afw. lozingspunt ALZ","Stiemer","odq5zwrl",NA,"YES","I_3590_1",NA,NA,"VMM_Mtp","Lotisch",NA,"Limburg","Diepenbeek",3590,2,8038,NA,50.9428519,5.4453862,"Limburg",NA,"christel.bouchet@limburg.be"
FALSE,FALSE,NA,"Molenbeek",NA,NA,"YES","I_3740_2",NA,NA,"VMM_Mtp","Lotisch",NA,"Limburg","Bilzen",3740,2,7304,NA,50.820863638419,5.51436641560272,"Limburg",NA,"christel.bouchet@limburg.be"
FALSE,FALSE,"Wilsele-Putkapel, Weggevoerdenstr/Vuntlaan, afw brug (FC), 50 m opw brug (BBI)","Vunt",NA,NA,"YES","I_3012_3",NA,NA,"VMM_Mtp","Lotisch",NA,"Vlaams-Brabant","Leuven",3012,1,6603,NA,50.9246625,4.7147897,"VMM",NA,"d.slootmaekers@vmm.be"
FALSE,FALSE,"Heverlee, Campus Arenberg, weg langs de Voer","Voer",NA,NA,"YES","I_3001_3",NA,NA,"VMM_Mtp","Lotisch",NA,"Vlaams-Brabant","Leuven",3001,1,6919,NA,50.8715216751197,4.69039638628557,"VMM",NA,"d.slootmaekers@vmm.be"
FALSE,FALSE,"Neerijse, zijweg Eygenstr op RO Ijse, afw voetgangersbrugje 40m voor monding in de Dijle","Ijse",NA,NA,"YES","I_3040_2",NA,NA,"VMM_Mtp","Lotisch",NA,"Vlaams-Brabant","Huldenberg",3040,1,6556,NA,50.8231843497289,4.64093119063458,"VMM",NA,"d.slootmaekers@vmm.be"
FALSE,FALSE,"Neerijse, Lindenhoflaan, opw weg (FC), afw weg (BBI)","Ijse",NA,NA,"YES","I_3040_3",NA,NA,"VMM_Mtp","Lotisch",NA,"Vlaams-Brabant","Huldenberg",3040,1,6556,NA,50.8163591450913,4.63400931765492,"VMM",NA,"d.slootmaekers@vmm.be"
FALSE,FALSE,"Neerijse, Kamstr, opw weg en overstort","Ijse",NA,NA,"YES","I_3040_4",NA,NA,"VMM_Mtp","Lotisch",NA,"Vlaams-Brabant","Huldenberg",3040,1,6556,NA,50.8128983513637,4.6217444569215,"VMM",NA,"d.slootmaekers@vmm.be"
FALSE,FALSE,"Loonbeek, Bertelsheide, afw brug","Ijse",NA,NA,"YES","I_3040_5",NA,NA,"VMM_Mtp","Lotisch",NA,"Vlaams-Brabant","Huldenberg",3040,1,6556,NA,50.8081430479003,4.61319196163682,"VMM",NA,"d.slootmaekers@vmm.be"
FALSE,FALSE,"Huldenberg, Smeysberg, opw brug","Ijse",NA,NA,"YES","I_3040_6",NA,NA,"VMM_Mtp","Lotisch",NA,"Vlaams-Brabant","Huldenberg",3040,1,6556,NA,50.7900968193198,4.59274633048901,"VMM",NA,"d.slootmaekers@vmm.be"
FALSE,FALSE,"Overijse, Fr. Verbeekstr, opw brugje thv huisnr 124","Ijse",NA,NA,"YES","I_3090_1",NA,NA,"VMM_Mtp","Lotisch",NA,"Vlaams-Brabant","Overijse",3090,2,6556,NA,50.7688132952362,4.50964493012778,"Vlaams-Brabant",NA,"ingrid.beuls@vlaamsbrabant.be"
FALSE,FALSE,"Hoeilaart, Van Marchandstr, opw weg en opw 1ste lozing","Ijse",NA,NA,"YES","I_1560_1",NA,NA,"VMM_Mtp","Lotisch",NA,"Vlaams-Brabant","Hoeilaart",1560,2,6556,NA,50.7680209513901,4.48647956732085,"Vlaams-Brabant",NA,"ingrid.beuls@vlaamsbrabant.be"
FALSE,FALSE,"Hoeilaart, J.B.Charlierln/Kasteelstr, afw brugje","Ijse",NA,NA,"YES","I_1560_2",NA,NA,"VMM_Mtp","Lotisch",NA,"Vlaams-Brabant","Hoeilaart",1560,2,6556,NA,50.7663877632006,4.46358262219317,"Vlaams-Brabant",NA,"ingrid.beuls@vlaamsbrabant.be"
FALSE,FALSE,"Hoeilaart, via zijweg Duboislaan, opw vijver, afw inkokering","Ijse",NA,NA,"YES","I_1560_3",NA,NA,"VMM_Mtp","Lotisch",NA,"Vlaams-Brabant","Hoeilaart",1560,2,6556,NA,50.7668109079148,4.43710410714363,"Huvenne Patrick",NA,"recreatie.vbr.anb@vlaanderen.be"
FALSE,FALSE,"Zijbeek IJsse, Hoeilaart, Overijsesteenweg, 2m opw weg en LP","Beek",NA,NA,"YES","I_3090_2",NA,NA,"VMM_Mtp","Lotisch",NA,"Vlaams-Brabant","Overijse",3090,2,6611,NA,50.7692249081143,4.48713469059929,"Vlaams-Brabant",NA,"ingrid.beuls@vlaamsbrabant.be"
FALSE,FALSE,"Sint-Agatha-Rode, Hoekstr, opw weg","Laan",NA,NA,"YES","I_3040_7",NA,NA,"VMM_Mtp","Lotisch",NA,"Vlaams-Brabant","Huldenberg",3040,1,6691,NA,50.7917737009623,4.63343072209589,"VMM",NA,"d.slootmaekers@vmm.be"
FALSE,FALSE,"Tombeek, Lanestr., naast huis nr 126, opw brug","Laan",NA,NA,"YES","I_3090_3",NA,NA,"VMM_Mtp","Lotisch",NA,"Vlaams-Brabant","Overijse",3090,1,6691,NA,50.7530381682679,4.56969730960122,"VMM",NA,"d.slootmaekers@vmm.be"
FALSE,FALSE,"Beervelde,Voldersstraat","Lede",NA,NA,"YES","I_9080_1",NA,NA,"VMM_Mtp","Lotisch",NA,"Oost-Vlaanderen","Lochristi",9080,1,3105,NA,51.0917197696945,3.89126753998121,"VMM",NA,"d.slootmaekers@vmm.be"
FALSE,FALSE,"""Hillare, afw brug""","Lede",NA,NA,"YES","I_9160_1",NA,NA,"VMM_Mtp","Lotisch",NA,"Oost-Vlaanderen","Lokeren",9160,1,3105,NA,51.1010951503127,3.97400618036958,"VMM",NA,"d.slootmaekers@vmm.be"
FALSE,FALSE,"Kanaalstraat-Rivierstraat","Lede",NA,NA,"YES","I_9160_2",NA,NA,"VMM_Mtp","Lotisch",NA,"Oost-Vlaanderen","Lokeren",9160,1,3105,NA,51.0963940552183,4.00776417430718,"VMM",NA,"d.slootmaekers@vmm.be"
FALSE,FALSE,"2de of voorlaatste zijweg op de Koning Albertdijk",NA,NA,NA,"YES","I_9220_1",NA,NA,"VMM_Mtp","Lotisch",NA,"Oost-Vlaanderen","Hamme",9220,2,3640,NA,51.0690239446766,4.18318690612802,"Polder Schelde Durme Oost","052/412599","poldersdo@skynet.be"
FALSE,FALSE,"Snuifmolenstraat,thv parking station Dendermonde,brugje","Vondelbeek",NA,NA,"YES","I_9200_1",NA,NA,"VMM_Mtp","Lotisch",NA,"Oost-Vlaanderen","Dendermonde",9200,1,6337,NA,51.0211062237894,4.10035653401679,"VMM",NA,"d.slootmaekers@vmm.be"
FALSE,FALSE,"Ledebaan,afw weg en stuw","Ter Erpenbeek",NA,NA,"YES","I_9300_1",NA,NA,"VMM_Mtp","Lotisch",NA,"Oost-Vlaanderen","Aalst",9300,1,5953,NA,50.9528837021661,4.01703563908781,"VMM",NA,"d.slootmaekers@vmm.be"
FALSE,FALSE,"Sint-Lievens-Esse,Wijnhuizestraat-Pijpketel,opw weg","Plankebeek",NA,NA,"YES","I_9620_1",NA,NA,"VMM_Mtp","Lotisch",NA,"Oost-Vlaanderen","Herzele",9620,2,5976,NA,50.8528669885209,3.85172513669193,"Oost-Vlaanderen",NA,"waterbeleid@oost-vlaanderen.be"
FALSE,FALSE,"Etbos,opw brug","Zuidlede",NA,NA,"YES","I_9180_4",NA,NA,"VMM_Mtp","Lotisch",NA,"Oost-Vlaanderen","Moerbeke",9180,1,26,NA,51.151347597325,3.92468856009841,"VMM",NA,"d.slootmaekers@vmm.be"
FALSE,FALSE,"Oostakker,Mendonk,Mendonkdorp-Oostdonkstraat,opw brug","Zuidlede",NA,NA,"YES","I_9042_1",NA,NA,"VMM_Mtp","Lotisch",NA,"Oost-Vlaanderen","Gent",9042,1,26,NA,51.1483519060155,3.82905064161166,"VMM",NA,"d.slootmaekers@vmm.be"
FALSE,FALSE,"N45 Expresweg Aalst - Ninove,opw weg","Oliemeersbeek",NA,NA,"YES","I_9450_1",NA,NA,"VMM_Mtp","Lotisch",NA,"Oost-Vlaanderen","Haaltert",9450,2,6078,NA,50.8587028365417,4.02367601997473,"Oost-Vlaanderen",NA,"waterbeleid@oost-vlaanderen.be"
FALSE,FALSE,"Denderwindeke,Vreckom,opw weg","Wolfputbeek",NA,NA,"YES","I_9400_1",NA,NA,"VMM_Mtp","Lotisch",NA,"Oost-Vlaanderen","Ninove",9400,2,5955,NA,50.7891452876723,4.04415340153345,"Oost-Vlaanderen",NA,"waterbeleid@oost-vlaanderen.be"
FALSE,FALSE,"Venebroeklos,afw spoorwegbrug,thv bedrijf La Lorraine","Molenbeek",NA,NA,"YES","I_9400_2",NA,NA,"VMM_Mtp","Lotisch",NA,"Oost-Vlaanderen","Ninove",9400,2,5983,NA,50.8333809353881,4.00929692474925,"Oost-Vlaanderen",NA,"waterbeleid@oost-vlaanderen.be"
FALSE,FALSE,"Zandbergen,(Beekstraat)-Voordeweg,opw weg","Molenbeek",NA,NA,"YES","I_9506_1",NA,NA,"VMM_Mtp","Lotisch",NA,"Oost-Vlaanderen","Geraardsbergen",9506,1,5954,NA,50.8080059517763,3.9529944082495,"VMM",NA,"d.slootmaekers@vmm.be"
FALSE,FALSE,"Sint-Maria-Lierde,Beekstraat,opw weg","Ophasseltbeek","zwuzztfl","04/09/24","YES","I_9570_1",NA,NA,"VMM_Mtp","Lotisch",NA,"Oost-Vlaanderen","Lierde",9570,2,6095,NA,50.8240558,3.8377674,"Oost-Vlaanderen",NA,"waterbeleid@oost-vlaanderen.be"
FALSE,FALSE,"Onkerzele,Bosstraat,opw weg","Steenborrebeek","mta3yjmz",NA,"YES","I_9500_1",NA,NA,"VMM_Mtp","Lotisch",NA,"Oost-Vlaanderen","Geraardsbergen",9500,2,6338,NA,50.7817292906111,3.92371757436728,"Oost-Vlaanderen",NA,"waterbeleid@oost-vlaanderen.be"
FALSE,FALSE,"St-Pieters-Kapelle,Roosbroekstraat,einde veldweg,achterzijde boerderij,afw molen","Mark",NA,NA,"YES","I_1541_1",NA,NA,"VMM_Mtp","Lotisch",NA,"Vlaams-Brabant","Herne",1541,1,5952,NA,50.6989680669501,4.01313638511396,"VMM",NA,"d.slootmaekers@vmm.be"
FALSE,FALSE,"Torrezeel,veldweg,afw","Beverbeek",NA,NA,"YES","I_1547_1",NA,NA,"VMM_Mtp","Lotisch",NA,"Vlaams-Brabant","Bever",1547,2,6347,NA,50.7025745367026,3.94595256293746,"Vlaams-Brabant",NA,"ingrid.beuls@vlaamsbrabant.be"
FALSE,FALSE,"Herfelingen,Raseveldstraat,opw monding in Waterblokbeek","Waterblokbeek",NA,NA,"YES","I_1540_2",NA,NA,"VMM_Mtp","Lotisch",NA,"Vlaams-Brabant","Herne",1540,2,6404,NA,50.7520451026228,4.05765834373395,"Vlaams-Brabant",NA,"ingrid.beuls@vlaamsbrabant.be"
FALSE,FALSE,"Kloosterstraat,opw weg en spoorweg","Molenbeek",NA,NA,"YES","I_9340_1",NA,NA,"VMM_Mtp","Lotisch",NA,"Oost-Vlaanderen","Lede",9340,2,5007,NA,50.9802933808765,3.96684801327755,"Oost-Vlaanderen",NA,"waterbeleid@oost-vlaanderen.be"
FALSE,FALSE,"Burst,Oudendijk, langs weg","Hellegat",NA,NA,"YES","I_9420_1",NA,NA,"VMM_Mtp","Lotisch",NA,"Oost-Vlaanderen","Erpe-Mere",9420,2,5192,NA,50.9068083143102,3.91113107918061,"Oost-Vlaanderen",NA,"waterbeleid@oost-vlaanderen.be"
FALSE,FALSE,"Smetlede,Schildeken,Smetledestraat","Wellebeek",NA,NA,"YES","I_9340_2",NA,NA,"VMM_Mtp","Lotisch",NA,"Oost-Vlaanderen","Lede",9340,2,5663,NA,50.966959376804,3.94052590716757,"Oost-Vlaanderen",NA,"waterbeleid@oost-vlaanderen.be"
FALSE,FALSE,"Borsbeke,Wijteveldstraat,veldweg thv Dreefstraat,stroomafw",NA,NA,NA,"YES","I_9552_1",NA,NA,"VMM_Mtp","Lotisch",NA,"Oost-Vlaanderen","Herzele",9552,2,5130,NA,50.9039666912702,3.88397594499229,"Oost-Vlaanderen",NA,"waterbeleid@oost-vlaanderen.be"
FALSE,FALSE,"Verharde veldweg tussen Bergafstraat & Kouterstraat,opw weg","Doormansbeek",NA,NA,"YES","I_9550_1",NA,NA,"VMM_Mtp","Lotisch",NA,"Oost-Vlaanderen","Herzele",9550,2,5081,NA,50.8908995,3.874062,"Oost-Vlaanderen",NA,"waterbeleid@oost-vlaanderen.be"
FALSE,FALSE,"Schellebelle,verharde veldweg tussen Aard en Vaartstraat,opw bemalingsstation","Kalkenvaart",NA,NA,"YES","I_9260_1",NA,NA,"VMM_Mtp","Lotisch",NA,"Oost-Vlaanderen","Wichelen",9260,1,5614,NA,51.0182696957811,3.92342589556224,"VMM",NA,"d.slootmaekers@vmm.be"
FALSE,FALSE,"Kalken,Menneweg,afw weg","Kalkenvaart",NA,NA,"YES","I_9270_1",NA,NA,"VMM_Mtp","Lotisch",NA,"Oost-Vlaanderen","Laarne",9270,1,5614,NA,51.0336740017932,3.91318613815986,"Meulebrouck Klaar",NA,"recreatie.ovl.anb@vlaanderen.be"
FALSE,FALSE,"Mellestraat,afw weg","Laresloot","mthmngrl",NA,"YES","I_9270_2",NA,NA,"VMM_Mtp","Lotisch",NA,"Oost-Vlaanderen","Laarne",9270,2,5530,NA,51.022893,3.8373077,"Polder van Belham","09/3663721","griffier@poldervanbelham.be"
FALSE,FALSE,"Massemen,Watermolenstraat-Kriephoekstraat,afw Van Hauwermeirsmolen,opw weg","Molenbeek",NA,NA,"YES","I_9230_1",NA,NA,"VMM_Mtp","Lotisch",NA,"Oost-Vlaanderen","Wetteren",9230,1,5006,NA,50.9783156615813,3.87895051152484,"VMM",NA,"d.slootmaekers@vmm.be"
FALSE,FALSE,"Kalverhagestraat,opw weg","Molenbeek",NA,NA,"YES","I_9090_1",NA,NA,"VMM_Mtp","Lotisch",NA,"Oost-Vlaanderen","Melle",9090,2,5005,NA,50.9895867861788,3.80616515911601,"Oost-Vlaanderen",NA,"waterbeleid@oost-vlaanderen.be"
FALSE,FALSE,"Moortsele,Kasteelstraat,opw weg","Molenbeek",NA,NA,"YES","I_9860_1",NA,NA,"VMM_Mtp","Lotisch",NA,"Oost-Vlaanderen","Oosterzele",9860,2,5005,NA,50.9543603,3.7801325,"Oost-Vlaanderen",NA,"waterbeleid@oost-vlaanderen.be"
FALSE,FALSE,"Scheldewindeke,Ettinge,Hettingen,veldweg,afw","Kleine Ettingbeek",NA,NA,"YES","I_9860_2",NA,NA,"VMM_Mtp","Lotisch",NA,"Oost-Vlaanderen","Oosterzele",9860,2,5325,NA,50.9392854106806,3.8013041750584,"Oost-Vlaanderen",NA,"waterbeleid@oost-vlaanderen.be"
FALSE,FALSE,"Balegem,Rooigemstraat-Gootje,opw weg","Rommelbeek",NA,NA,"YES","I_9860_3",NA,NA,"VMM_Mtp","Lotisch",NA,"Oost-Vlaanderen","Oosterzele",9860,2,5067,NA,50.9176769,3.7962321,"Oost-Vlaanderen",NA,"waterbeleid@oost-vlaanderen.be"
FALSE,FALSE,"Balegem,Apostelstraat,afw weg","Molenbeek",NA,NA,"YES","I_9860_4",NA,NA,"VMM_Mtp","Lotisch",NA,"Oost-Vlaanderen","Oosterzele",9860,2,5005,NA,50.9108446622163,3.8073920914505,"Oost-Vlaanderen",NA,"waterbeleid@oost-vlaanderen.be"
FALSE,FALSE,"Scheldewindeke,Frankenbos,opw","Begijnenbeek",NA,NA,"YES","I_9860_5",NA,NA,"VMM_Mtp","Lotisch",NA,"Oost-Vlaanderen","Oosterzele",9860,2,5204,NA,50.9197172234161,3.77087814153286,"Oost-Vlaanderen",NA,"waterbeleid@oost-vlaanderen.be"
FALSE,FALSE,"Astene, Paterstraat","Twezebeekloop",NA,NA,"YES","I_9800_1",NA,NA,"VMM_Mtp","Lotisch",NA,"Oost-Vlaanderen","Deinze",9800,2,4676,NA,50.9789506184959,3.58699690096332,"Oost-Vlaanderen",NA,"waterbeleid@oost-vlaanderen.be"
FALSE,FALSE,"Kortrijksesteenweg, incl. afwateringsgracht","Kattebeek",NA,NA,"YES","I_9800_2",NA,NA,"VMM_Mtp","Lotisch",NA,"Oost-Vlaanderen","Deinze",9800,2,4410,NA,50.9731834261799,3.52135383107154,"Oost-Vlaanderen",NA,"waterbeleid@oost-vlaanderen.be"
FALSE,FALSE,"Bisdonkstraat, veldwegel thv bocht","Stokstormbeek",NA,NA,"YES","I_9770_1",NA,NA,"VMM_Mtp","Lotisch",NA,"Oost-Vlaanderen","Kruisem",9770,2,4463,NA,50.9466270186662,3.52127822277462,"Oost-Vlaanderen",NA,"waterbeleid@oost-vlaanderen.be"
FALSE,FALSE,"Gottem, Oude Heirbaan","Oude Mandel",NA,NA,"YES","I_9800_3",NA,NA,"VMM_Mtp","Lotisch",NA,"Oost-Vlaanderen","Deinze",9800,1,4688,NA,50.9676430902253,3.46306814046589,"VMM",NA,"d.slootmaekers@vmm.be"
FALSE,FALSE,"Aarsele, Snephoekstraat, thv spoorweg, afw samenvl zijbeek","Speibeek",NA,NA,"YES","I_8700_1",NA,NA,"VMM_Mtp","Lotisch",NA,"West-Vlaanderen","Tielt",8700,2,4824,NA,50.987969383437,3.38362533933081,"West-Vlaanderen",NA,NA
FALSE,FALSE,"Blauwdreef","Zoubeek",NA,NA,"YES","I_9870_1",NA,NA,"VMM_Mtp","Lotisch",NA,"Oost-Vlaanderen","Zulte",9870,2,4236,NA,50.914250666098,3.47820464123644,"Oost-Vlaanderen",NA,"waterbeleid@oost-vlaanderen.be"
FALSE,FALSE,"Nokere, Beerstraat",NA,NA,NA,"YES","I_9771_1",NA,NA,"VMM_Mtp","Lotisch",NA,"Oost-Vlaanderen","Kruisem",9771,2,4355,NA,50.8860573827079,3.49006597226219,"Oost-Vlaanderen",NA,"waterbeleid@oost-vlaanderen.be"
FALSE,FALSE,"Tieltstraat, 't Patrijzenhof","Mandel",NA,NA,"YES","I_8720_1",NA,NA,"VMM_Mtp","Lotisch",NA,"West-Vlaanderen","Dentergem",8720,1,4203,NA,50.9454230893507,3.38616902788939,"VMM",NA,"d.slootmaekers@vmm.be"
FALSE,FALSE,"Meulebeeksesteenweg, Smetsbrug","Mandel",NA,NA,"YES","I_8780_1",NA,NA,"VMM_Mtp","Lotisch",NA,"West-Vlaanderen","Oostrozebeke",8780,1,4203,NA,50.9243434433032,3.32689712428062,"VMM",NA,"d.slootmaekers@vmm.be"
FALSE,FALSE,"Kachtem, Rumbeeksestraat","Mandel",NA,NA,"YES","I_8870_1",NA,NA,"VMM_Mtp","Lotisch",NA,"West-Vlaanderen","Izegem",8870,1,4203,NA,50.932921379466,3.18369667478988,"VMM",NA,"d.slootmaekers@vmm.be"
FALSE,FALSE,"Linkervaartoever, Schaapbrug","Mandel",NA,NA,"YES","I_8800_1",NA,NA,"VMM_Mtp","Lotisch",NA,"West-Vlaanderen","Roeselare",8800,1,4203,NA,50.9412870393117,3.16292338209979,"VMM",NA,"d.slootmaekers@vmm.be"
FALSE,FALSE,"De Zilten, St. Idesbaldus Inst.","Duivelsbeek",NA,NA,"YES","I_8800_2",NA,NA,"VMM_Mtp","Lotisch",NA,"West-Vlaanderen","Roeselare",8800,2,4512,NA,50.9595799063019,3.10027260408082,"West-Vlaanderen",NA,NA
FALSE,FALSE,"Over d'Aa, saf weg, einde zijwegje","Kleine Aa",NA,NA,"YES","I_2910_1","bij voorkeur tussen 20/07 - 01/09",NA,"VMM_Mtp","Lotisch",NA,"Antwerpen","Essen",2910,2,9514,NA,51.4665579738081,4.4783632439925,"Antwerpen",NA,"hans.vanloy@provincieantwerpen.be"
FALSE,FALSE,"Oostnieuwkerke, Wallebrugstraat","Mandel",NA,NA,"YES","I_8840_1",NA,NA,"VMM_Mtp","Lotisch",NA,"West-Vlaanderen","Staden",8840,2,4203,NA,50.947267108444,3.06449906641869,"West-Vlaanderen",NA,NA
FALSE,FALSE,"Oostnieuwkerke, Cortonstraat","Mandel",NA,NA,"YES","I_8840_2",NA,NA,"VMM_Mtp","Lotisch",NA,"West-Vlaanderen","Staden",8840,2,4203,NA,50.9272625550551,3.04516696641922,"West-Vlaanderen",NA,NA
FALSE,FALSE,"Robrechtegemstraat","Devebeek",NA,NA,"YES","I_8760_1",NA,NA,"VMM_Mtp","Lotisch",NA,"West-Vlaanderen","Meulebeke",8760,2,4207,NA,50.9647310588911,3.28747619420691,"West-Vlaanderen",NA,NA
FALSE,FALSE,"Claerhoutmolenweg","Devebeek",NA,NA,"YES","I_8740_1",NA,NA,"VMM_Mtp","Lotisch",NA,"West-Vlaanderen","Pittem",8740,2,4207,NA,50.9786618691358,3.2763462411418,"West-Vlaanderen",NA,NA
FALSE,FALSE,"Vijfstraat - zijweg lgs spoorweg","Zwartegatbeek",NA,NA,"YES","I_8740_2",NA,NA,"VMM_Mtp","Lotisch",NA,"West-Vlaanderen","Pittem",8740,2,4294,NA,50.9879532408568,3.27393625817682,"West-Vlaanderen",NA,NA
FALSE,FALSE,"Muizebeekstraat","Zwartegatbeek",NA,NA,"YES","I_8740_3",NA,NA,"VMM_Mtp","Lotisch",NA,"West-Vlaanderen","Pittem",8740,2,4294,NA,50.9890744018875,3.27559087477422,"West-Vlaanderen",NA,NA
FALSE,FALSE,"Baertstraat","Gaverbeek",NA,NA,"YES","I_8740_4",NA,NA,"VMM_Mtp","Lotisch",NA,"West-Vlaanderen","Pittem",8740,2,4219,NA,51.0035821535351,3.26475144433644,"West-Vlaanderen",NA,NA
FALSE,FALSE,"Wezestraat","Motebeek",NA,NA,"YES","I_8850_1",NA,NA,"VMM_Mtp","Lotisch",NA,"West-Vlaanderen","Ardooie",8850,2,4550,NA,50.9679300294992,3.20896713901912,"West-Vlaanderen",NA,NA
FALSE,FALSE,"Westrozebeke, Vijverbos","Vijverbeek",NA,NA,"YES","I_8840_3",NA,NA,"VMM_Mtp","Lotisch",NA,"West-Vlaanderen","Staden",8840,2,4335,NA,50.9338710285644,3.02459188306129,"Dewulf Evy",NA,"recreatie.wvl.anb@vlaanderen.be"
FALSE,FALSE,"Otegem,  Zwevegemstraat","Kleine Kasselrijbeek",NA,NA,"YES","I_8553_1",NA,NA,"VMM_Mtp","Lotisch",NA,"West-Vlaanderen","Zwevegem",8553,2,4628,NA,50.8131430135389,3.40700886234668,"West-Vlaanderen",NA,NA
FALSE,FALSE,"Bellegem; Ooievaarsnest",NA,NA,NA,"YES","I_8510_1",NA,NA,"VMM_Mtp","Lotisch",NA,"West-Vlaanderen","Kortrijk",8510,2,10297,NA,50.7871173045421,3.3091692642527,"West-Vlaanderen",NA,NA
FALSE,FALSE,"Stasegemsesteenweg, Gavermeer","Gaverbeek",NA,NA,"YES","I_8530_1",NA,NA,"VMM_Mtp","Lotisch",NA,"West-Vlaanderen","Harelbeke",8530,1,15720,NA,50.8412429702596,3.31047755973651,"VMM",NA,"d.slootmaekers@vmm.be"
FALSE,FALSE,"Hulste, Hazebeekstraat, Havikhoek","Hazebeek",NA,NA,"YES","I_8531_1",NA,NA,"VMM_Mtp","Lotisch",NA,"West-Vlaanderen","Harelbeke",8531,2,4710,NA,50.8789875370817,3.29102611282182,"West-Vlaanderen",NA,NA
FALSE,FALSE,"Moorsele, Ledegemsestraat","Heulebeek",NA,NA,"YES","I_8560_1",NA,NA,"VMM_Mtp","Lotisch",NA,"West-Vlaanderen","Wevelgem",8560,1,4205,NA,50.8426824197549,3.15546872317856,"VMM",NA,"d.slootmaekers@vmm.be"
FALSE,FALSE,"Zilverenhoek,Gageltjes, opw zandweg","Zilveren Loop",NA,NA,"YES","I_2920_1","bij voorkeur tussen 20/07 - 01/09",NA,"VMM_Mtp","Lotisch",NA,"Antwerpen","Kalmthout",2920,2,9860,NA,51.4195583,4.4824202,"Antwerpen",NA,"hans.vanloy@provincieantwerpen.be"
FALSE,FALSE,"Mispelarestraat",NA,NA,NA,"YES","I_8980_1",NA,NA,"VMM_Mtp","Lotisch",NA,"West-Vlaanderen","Zonnebeke",8980,2,58840,NA,50.8727855723837,3.02209020640218,"West-Vlaanderen",NA,NA
FALSE,FALSE,"Moen,Kraaibosstraat,afw weg","Oliebergbeek",NA,NA,"YES","I_8552_1",NA,NA,"VMM_Mtp","Lotisch",NA,"West-Vlaanderen","Zwevegem",8552,2,163,NA,50.7779135699985,3.37833333484665,"West-Vlaanderen",NA,NA
FALSE,FALSE,"Lauwe, Waterstraat,  na samenvl Meurissonsbeek","Palingbeek",NA,NA,"YES","I_8930_1",NA,NA,"VMM_Mtp","Lotisch",NA,"West-Vlaanderen","Menen",8930,2,4311,NA,50.7916406988454,3.16320955394,"West-Vlaanderen",NA,NA
FALSE,FALSE,"Lauwe, Moeskroenstraat, Pont Neuf","Gaverbeek",NA,NA,"YES","I_8930_2",NA,NA,"VMM_Mtp","Lotisch",NA,"West-Vlaanderen","Menen",8930,2,4229,NA,50.7904700147149,3.14826094422029,"West-Vlaanderen",NA,NA
FALSE,FALSE,"Beselare, Oude Kortrijkstraat, Reutel","Polygonebeek",NA,NA,"YES","I_8980_2",NA,NA,"VMM_Mtp","Lotisch",NA,"West-Vlaanderen","Zonnebeke",8980,2,4213,NA,50.8490032221461,2.99945092216331,"West-Vlaanderen",NA,NA
FALSE,FALSE,"Wijtschate, Klijtputstraat","Wambeek",NA,NA,"YES","I_8953_1",NA,NA,"VMM_Mtp","Lotisch",NA,"West-Vlaanderen","Heuvelland",8953,2,4534,NA,50.778271517928,2.94082605542985,"West-Vlaanderen",NA,NA
FALSE,FALSE,"Wulvergem, Vrooilandstraat zijweg","Stuiversbeek",NA,NA,"YES","I_8953_2",NA,NA,"VMM_Mtp","Lotisch",NA,"West-Vlaanderen","Heuvelland",8953,2,4764,NA,50.7653029125198,2.85676339096296,"West-Vlaanderen",NA,NA
FALSE,FALSE,"Heikenweg, opw. Weehagense Beek; Bio opw en afw brug; FC afw brug","Kleine Aa of Weerijsbeek",NA,NA,"YES","I_2990_2",NA,NA,"VMM_Mtp","Lotisch",NA,"Antwerpen","Wuustwezel",2990,1,9503,NA,51.4171573634492,4.63848534629142,"VMM",NA,"d.slootmaekers@vmm.be"
FALSE,FALSE,"Loenhout;De Donk,Donkweg,opw(BIO)en afw(FC)brug","Kleine Aa of Weerijsbeek",NA,NA,"YES","I_2990_3",NA,NA,"VMM_Mtp","Lotisch",NA,"Antwerpen","Wuustwezel",2990,1,9503,NA,51.4014731168963,4.61829176887633,"VMM",NA,"d.slootmaekers@vmm.be"
FALSE,FALSE,"Lo, Klarewal-zijweg","Collaertshillebeek",NA,NA,"YES","I_8647_1",NA,NA,"VMM_Mtp","Lotisch",NA,"West-Vlaanderen","Lo-Reninge",8647,2,1409,NA,50.9936606450851,2.72445057417186,"Westkustpolder","058/314653","info@westkustpolder.be"
FALSE,FALSE,"Westhoek, zijweg van N364","Grote Beverdijkvaart",NA,NA,"YES","I_8690_1",NA,NA,"VMM_Mtp","Lotisch",NA,"West-Vlaanderen","Alveringem",8690,2,1205,NA,50.9713086604252,2.68822290459877,"Westkustpolder","058/314653","info@westkustpolder.be"
FALSE,FALSE,"Elzendammestraat","Grote Beverdijkvaart",NA,NA,"YES","I_8691_1",NA,NA,"VMM_Mtp","Lotisch",NA,"West-Vlaanderen","Alveringem",8691,2,1205,NA,50.9691565033057,2.67796171763528,"Westkustpolder","058/314653","info@westkustpolder.be"
FALSE,FALSE,"Ramskapelle, Diksmuidse weg, Koolhofbrug","Slijkvaart",NA,NA,"YES","I_8620_1",NA,NA,"VMM_Mtp","Lotisch",NA,"West-Vlaanderen","Nieuwpoort",8620,1,1211,NA,51.1151875362033,2.75131598536184,"VMM",NA,"d.slootmaekers@vmm.be"
FALSE,FALSE,"Lampernisse, Zadelstraat","Oostkerkevaart",NA,NA,"YES","I_8600_1",NA,NA,"VMM_Mtp","Lotisch",NA,"West-Vlaanderen","Diksmuide",8600,2,1285,NA,51.0339667682263,2.76277671459923,"Westkustpolder","058/314653","info@westkustpolder.be"
FALSE,FALSE,"Brecht, Schoordijk, overbroekstraat opw weg en zijbeek","Kleine Aa of Weerijsbeek",NA,NA,"YES","I_2960_1","bij voorkeur tussen 20/07 - 01/09",NA,"VMM_Mtp","Lotisch",NA,"Antwerpen","Brecht",2960,2,9503,NA,51.3484351,4.6143177,"Antwerpen",NA,"hans.vanloy@provincieantwerpen.be"
FALSE,FALSE,"Nieuwmoer, natuurreservaat 'De Gaatjes', opw brug","Broekloop",NA,NA,"YES","I_2920_2","bij voorkeur tussen 20/07 - 01/09",NA,"VMM_Mtp","Lotisch",NA,"Antwerpen","Kalmthout",2920,2,9845,NA,51.4221005,4.5299226,"Antwerpen",NA,"hans.vanloy@provincieantwerpen.be"
FALSE,FALSE,"Begijnenmoerweg, (Bio)opw brug; (FC) afw brug","Berkenbeek",NA,NA,"YES","I_2990_4","bij voorkeur tussen 20/07 - 01/09",NA,"VMM_Mtp","Lotisch",NA,"Antwerpen","Wuustwezel",2990,2,9773,NA,51.4232061954599,4.54243327542182,"Antwerpen",NA,"hans.vanloy@provincieantwerpen.be"
FALSE,FALSE,"De Moeren, Chemin des limites, opw pompstation","Ringsloot",NA,NA,"YES","I_8630_1",NA,NA,"VMM_Mtp","Lotisch",NA,"West-Vlaanderen","Veurne",8630,2,14983,NA,51.0129773856751,2.57268481094605,"Westkustpolder","058/314653","info@westkustpolder.be"
FALSE,FALSE,"Schore, Lekestraat, afw",NA,"mwzkzmy1","22/07/2024","YES","I_8433_1",NA,NA,"VMM_Mtp","Lotisch",NA,"West-Vlaanderen","Middelkerke",8433,2,2040,NA,51.1083695,2.8645937,"Middenkustpolder","059/278477","info@middenkustpolder.be"
FALSE,FALSE,"Sint-Pieters-Kapelle, Sint Godelievestraat, afw",NA,"mwzkzmy1","29/07/2024","YES","I_8433_2",NA,NA,"VMM_Mtp","Lotisch",NA,"West-Vlaanderen","Middelkerke",8433,2,2039,NA,51.1167086,2.8706247,"Middenkustpolder","059/278477","info@middenkustpolder.be"
FALSE,FALSE,"Catstraat, grindpad net na huisnr 69","Lekevaartje",NA,NA,"YES","I_8680_1",NA,NA,"VMM_Mtp","Lotisch",NA,"West-Vlaanderen","Koekelare",8680,2,1903,NA,51.0874187170219,2.95298834481109,"West-Vlaanderen",NA,NA
FALSE,FALSE,"Zandvoordestraat","Gauweloze kreek",NA,NA,"YES","I_8400_1",NA,NA,"VMM_Mtp","Lotisch",NA,"West-Vlaanderen","Oostende",8400,1,14884,NA,51.2132630069322,2.94687931801598,"VMM",NA,"d.slootmaekers@vmm.be"
FALSE,FALSE,"Hollebeekstraat,10m opwaarts weg","Melsenbeek",NA,NA,"YES","I_9820_1",NA,NA,"VMM_Mtp","Lotisch",NA,"Oost-Vlaanderen","Merelbeke",9820,2,5088,NA,50.9751978498288,3.74775958728668,"Oost-Vlaanderen",NA,"waterbeleid@oost-vlaanderen.be"
FALSE,FALSE,"Eke, Pontweg, afw weg","Leebeek",NA,NA,"YES","I_9810_1",NA,NA,"VMM_Mtp","Lotisch",NA,"Oost-Vlaanderen","Nazareth",9810,2,5171,NA,50.9426795439085,3.64350704457478,"Oost-Vlaanderen",NA,"waterbeleid@oost-vlaanderen.be"
FALSE,FALSE,"Melsen,Wassemstraat,opw weg","Molenbeek",NA,NA,"YES","I_9820_2",NA,NA,"VMM_Mtp","Lotisch",NA,"Oost-Vlaanderen","Merelbeke",9820,2,5675,NA,50.9507837,3.7083912,"Coppens Xavier",NA,"recreatie.ovl.anb@vlaanderen.be"
FALSE,FALSE,"Asper,Landdijk,thv brugje","Stampkotbeek",NA,NA,"YES","I_9890_1",NA,NA,"VMM_Mtp","Lotisch",NA,"Oost-Vlaanderen","Gavere",9890,2,5274,NA,50.9195661381773,3.656606825356,"Oost-Vlaanderen",NA,"waterbeleid@oost-vlaanderen.be"
FALSE,FALSE,"Ouwegem, Den Bos, afw weg","Stampkotbeek",NA,NA,"YES","I_9750_1",NA,NA,"VMM_Mtp","Lotisch",NA,"Oost-Vlaanderen","Kruisem",9750,2,5274,NA,50.9214655585815,3.61659817232954,"Oost-Vlaanderen",NA,"waterbeleid@oost-vlaanderen.be"
FALSE,FALSE,"Vermerenhoek,Merestraat-Mantelstraat,opw weg en lozing","Plezierbeek",NA,NA,"YES","I_9810_2",NA,NA,"VMM_Mtp","Lotisch",NA,"Oost-Vlaanderen","Nazareth",9810,2,5196,NA,50.9358336630423,3.56268921271369,"Oost-Vlaanderen",NA,"waterbeleid@oost-vlaanderen.be"
FALSE,FALSE,"Eine,Doorn,Serpentsstraat","Marollebeek",NA,NA,"YES","I_9700_1",NA,NA,"VMM_Mtp","Lotisch",NA,"Oost-Vlaanderen","Oudenaarde",9700,2,5680,NA,50.8721764683166,3.60579302060106,"Oost-Vlaanderen",NA,"waterbeleid@oost-vlaanderen.be"
FALSE,FALSE,"Moregem + Ooike,Pareel,Pareelstraat,afw weg","Volkaartsbeek",NA,NA,"YES","I_9790_1",NA,NA,"VMM_Mtp","Lotisch",NA,"Oost-Vlaanderen","Wortegem-Petegem",9790,2,5528,NA,50.850708871433,3.54595583128509,"Oost-Vlaanderen",NA,"waterbeleid@oost-vlaanderen.be"
FALSE,FALSE,"Nederzwalm-Hermelgem,Hoogstraat,opw weg","Zwalmbeek","zdzmotni",NA,"YES","I_9636_1",NA,NA,"VMM_Mtp","Lotisch",NA,"Oost-Vlaanderen","Zwalm",9636,1,5000,NA,50.8853835,3.6863154,"VMM",NA,"d.slootmaekers@vmm.be"
FALSE,FALSE,"Munkzwalm,Rekegemstraat,opw molen en stuw","Zwalmbeek","zdzmotni",NA,"YES","I_9630_1",NA,NA,"VMM_Mtp","Lotisch",NA,"Oost-Vlaanderen","Zwalm",9630,1,5000,NA,50.8790191,3.7426409,"VMM",NA,"d.slootmaekers@vmm.be"
FALSE,FALSE,"Sint-Blasius-Boekel, Boekelbaan, opw weg","Peerdestokbeek",NA,NA,"YES","I_9630_2",NA,NA,"VMM_Mtp","Lotisch",NA,"Oost-Vlaanderen","Zwalm",9630,2,5508,NA,50.8505963415233,3.71054994884822,"Oost-Vlaanderen",NA,"waterbeleid@oost-vlaanderen.be"
FALSE,FALSE,"Sint-Maria-Horebeke,Koekoekstraat-Ommegangstraat,20m afw weg","Krombeek",NA,NA,"YES","I_9667_1",NA,NA,"VMM_Mtp","Lotisch",NA,"Oost-Vlaanderen","Horebeke",9667,2,5683,NA,50.8337625940673,3.69233054542346,"Oost-Vlaanderen",NA,"waterbeleid@oost-vlaanderen.be"
FALSE,FALSE,"Minderhout; Bredaseweg; FC:afw. brug;  BIO:70m afw. brug","Mark",NA,NA,"YES","I_2322_1",NA,NA,"VMM_Mtp","Lotisch",NA,"Antwerpen","Hoogstraten",2322,1,9502,NA,51.4309011909395,4.76572608662995,"VMM",NA,"d.slootmaekers@vmm.be"
FALSE,FALSE,"Minderhout; Castelreseweg, opw brug","Mark",NA,NA,"YES","I_2322_2",NA,NA,"VMM_Mtp","Lotisch",NA,"Antwerpen","Hoogstraten",2322,1,9502,NA,51.4174412063708,4.76998051499129,"VMM",NA,"d.slootmaekers@vmm.be"
FALSE,FALSE,"Melden,Meersbloem Leupegem-Meersbloem Melden,afwaarts brug","Maarkebeek",NA,NA,"YES","I_9700_2",NA,NA,"VMM_Mtp","Lotisch",NA,"Oost-Vlaanderen","Oudenaarde",9700,1,5003,NA,50.8327042846176,3.5938695774657,"VMM",NA,"d.slootmaekers@vmm.be"
FALSE,FALSE,"Wortel;'s Boschstraat,opw brug (achter Kolonie)","Mark",NA,NA,"YES","I_2320_1",NA,NA,"VMM_Mtp","Lotisch",NA,"Antwerpen","Hoogstraten",2320,1,9502,NA,51.406954578214,4.77200226484155,"VMM",NA,"d.slootmaekers@vmm.be"
FALSE,FALSE,"Nukerke, Holandstraat,opw weg","Molenbeek","zgrhnjvm",NA,"YES","I_9681_1",NA,NA,"VMM_Mtp","Lotisch",NA,"Oost-Vlaanderen","Maarkedal",9681,2,5578,NA,50.7853785,3.6045326,"Oost-Vlaanderen",NA,"waterbeleid@oost-vlaanderen.be"
FALSE,FALSE,"Melden,Heilbroek,langs veldweg","Molenbeek","zgrhnjvm",NA,"YES","I_9700_3",NA,NA,"VMM_Mtp","Lotisch",NA,"Oost-Vlaanderen","Oudenaarde",9700,2,5294,NA,50.8054142,3.5572037,"Oost-Vlaanderen",NA,"waterbeleid@oost-vlaanderen.be"
FALSE,FALSE,"Wortel;Klinketstraat,afw Klinketbrug (naast Kolon","Mark","odi1nge3",NA,"YES","I_2320_2",NA,NA,"VMM_Mtp","Lotisch",NA,"Antwerpen","Hoogstraten",2320,1,9502,NA,51.3984956,4.7854061,"VMM",NA,"d.slootmaekers@vmm.be"
FALSE,FALSE,"Klijpestraat, opw weg","Molenbeek",NA,NA,"YES","I_9600_1",NA,NA,"VMM_Mtp","Lotisch",NA,"Oost-Vlaanderen","Ronse",9600,2,5188,NA,50.7418972387577,3.56096056815329,"Oost-Vlaanderen",NA,"waterbeleid@oost-vlaanderen.be"
FALSE,FALSE,"César Snoecklaan,thv Utexbel,afw weg","Molenbeek",NA,NA,"YES","I_9600_2",NA,NA,"VMM_Mtp","Lotisch",NA,"Oost-Vlaanderen","Ronse",9600,2,5188,NA,50.7475678901575,3.58578891026278,"Oost-Vlaanderen",NA,"waterbeleid@oost-vlaanderen.be"
FALSE,FALSE,"Spiere,Pijpestraat,afw weg","Grote Spiere",NA,NA,"YES","I_8587_1",NA,NA,"VMM_Mtp","Lotisch",NA,"West-Vlaanderen","Spiere-Helkijn",8587,1,5039,NA,50.7279683700498,3.34663313039447,"VMM",NA,"d.slootmaekers@vmm.be"
FALSE,FALSE,"Doornikserijksweg-IJzeren Bareel,opw weg","Grote Spiere",NA,NA,"YES","I_8510_2",NA,NA,"VMM_Mtp","Lotisch",NA,"West-Vlaanderen","Kortrijk",8510,1,5039,NA,50.7310412306561,3.32905753156031,"VMM",NA,"d.slootmaekers@vmm.be"
FALSE,FALSE,"Bellegem,Grotestraat,opw weg","Scheldebeek",NA,NA,"YES","I_8510_3",NA,NA,"VMM_Mtp","Lotisch",NA,"West-Vlaanderen","Kortrijk",8510,2,5174,NA,50.7571000643952,3.28681175414989,"West-Vlaanderen",NA,NA
FALSE,FALSE,"Bellegem,Dottenijsestraat,opw weg","Bosbeek",NA,NA,"YES","I_8510_4",NA,NA,"VMM_Mtp","Lotisch",NA,"West-Vlaanderen","Kortrijk",8510,2,5132,NA,50.7664844477205,3.29050901244373,"West-Vlaanderen",NA,NA
FALSE,FALSE,"Bellegem,Kwadebrug,Kwabrugstraat,opw weg","Grote Spiere",NA,NA,"YES","I_8510_5",NA,NA,"VMM_Mtp","Lotisch",NA,"West-Vlaanderen","Kortrijk",8510,2,5039,NA,50.761781158048,3.26814885435627,"West-Vlaanderen",NA,NA
FALSE,FALSE,"Molendam-Molenslag,Molenbrug,opw weg","Oude Kale",NA,NA,"YES","I_9920_1",NA,NA,"VMM_Mtp","Lotisch",NA,"Oost-Vlaanderen","Lievegem",9920,1,72,NA,51.0832226480651,3.62070685172206,"VMM",NA,"d.slootmaekers@vmm.be"
FALSE,FALSE,"Vaart Links,thv Afleidingskanaal Leie,opw weg","Poekebeek",NA,NA,"YES","I_9850_1",NA,NA,"VMM_Mtp","Lotisch",NA,"Oost-Vlaanderen","Deinze",9850,1,27,NA,51.0338862063327,3.55126496542599,"VMM",NA,"d.slootmaekers@vmm.be"
FALSE,FALSE,"Graaf van Hoornestraat,afw weg","Poekebeek",NA,NA,"YES","I_9850_2",NA,NA,"VMM_Mtp","Lotisch",NA,"Oost-Vlaanderen","Deinze",9850,1,27,NA,51.0326640488401,3.54487081642325,"VMM",NA,"d.slootmaekers@vmm.be"
FALSE,FALSE,"Poesele,Oude Kerkstraat","Poekebeek",NA,NA,"YES","I_9850_3",NA,NA,"VMM_Mtp","Lotisch",NA,"Oost-Vlaanderen","Deinze",9850,1,27,NA,51.0290238427443,3.52087148764781,"VMM",NA,"d.slootmaekers@vmm.be"
FALSE,FALSE,"Poeke,Kasteelwijk,Kasteelstraat,afw weg","Poekebeek",NA,NA,"YES","I_9880_1",NA,NA,"VMM_Mtp","Lotisch",NA,"Oost-Vlaanderen","Aalter",9880,1,27,NA,51.040166747976,3.45187002706089,"VMM",NA,"d.slootmaekers@vmm.be"
FALSE,FALSE,"Meerle, Oosteneinde, grenspaal 216 (300m opw Kapui","Gouwbergse Loop",NA,NA,"YES","I_2328_1","bij voorkeur tussen 20/07 - 01/09",NA,"VMM_Mtp","Lotisch",NA,"Antwerpen","Meerle",2328,2,10163,NA,51.4818124459017,4.82894969700402,"Antwerpen",NA,"hans.vanloy@provincieantwerpen.be"
FALSE,FALSE,"Kruiskerkestraat,opw weg","Wantebeek",NA,NA,"YES","I_8755_1",NA,NA,"VMM_Mtp","Lotisch",NA,"West-Vlaanderen","Ruiselede",8755,2,293,NA,51.0651014254196,3.38679600141979,"West-Vlaanderen",NA,NA
FALSE,FALSE,"Vorte Bossen,Kruisbergstraat","Wantebeek",NA,NA,"YES","I_8755_2",NA,NA,"VMM_Mtp","Lotisch",NA,"West-Vlaanderen","Ruiselede",8755,2,293,NA,51.0766769950624,3.3735528062125,"West-Vlaanderen",NA,NA
FALSE,FALSE,"Schuiferskapelle,Rijkegemkouterstraat,opw weg","Kapellebeek",NA,NA,"YES","I_8700_2",NA,NA,"VMM_Mtp","Lotisch",NA,"West-Vlaanderen","Tielt",8700,2,169,NA,51.0314287,3.354241,"West-Vlaanderen",NA,NA
FALSE,FALSE,"Rokalseidestraat, voor mnd in Schipdonkk.","Ede","ztg1zti4",NA,"YES","I_9990_1",NA,NA,"VMM_Mtp","Lotisch",NA,"Oost-Vlaanderen","Maldegem",9990,2,620,NA,51.2339883,3.4417055,"Polder van Maldegem","0473/350437","info@poldervanmaldegem.be"
FALSE,FALSE,"Moerhuizestraat","Noordbroekwatergang","ztg1zti4",NA,"YES","I_9990_2",NA,NA,"VMM_Mtp","Lotisch",NA,"Oost-Vlaanderen","Maldegem",9990,2,2143,NA,51.2335857,3.4439142,"Polder van Maldegem","0473/350437","info@poldervanmaldegem.be"
FALSE,FALSE,"Koningin Astridlaan, spoorweg","Ede","nzkwmjiy",NA,"YES","I_9990_3",NA,NA,"VMM_Mtp","Lotisch",NA,"Oost-Vlaanderen","Maldegem",9990,2,620,NA,51.2044149,3.4395574,"Oost-Vlaanderen",NA,"waterbeleid@oost-vlaanderen.be"
FALSE,FALSE,"Kleit, Pot en Zuidhoutstraat, Maasbone","Ede",NA,NA,"YES","I_9990_4",NA,NA,"VMM_Mtp","Lotisch",NA,"Oost-Vlaanderen","Maldegem",9990,2,620,NA,51.1750863729976,3.47138705626858,"Oost-Vlaanderen",NA,"waterbeleid@oost-vlaanderen.be"
FALSE,FALSE,"Kleine Burkel, Goebilkstraat - zijweg","Leegakkerbeek","nzkwmjiy",NA,"YES","I_9990_5",NA,NA,"VMM_Mtp","Lotisch",NA,"Oost-Vlaanderen","Maldegem",9990,2,874,NA,51.1799601,3.4119837,"Oost-Vlaanderen",NA,"waterbeleid@oost-vlaanderen.be"
FALSE,FALSE,"Adegem, Akker","Watergang van de grote leegte",NA,NA,"YES","I_9991_1",NA,NA,"VMM_Mtp","Lotisch",NA,"Oost-Vlaanderen","Maldegem",9991,2,79,NA,51.1825026105237,3.51635462437563,"Oost-Vlaanderen",NA,"waterbeleid@oost-vlaanderen.be"
FALSE,FALSE,"Adegem, Heulendonk","Watergang van de grote leegte","nzkwmjiy",NA,"YES","I_9991_2",NA,NA,"VMM_Mtp","Lotisch",NA,"Oost-Vlaanderen","Maldegem",9991,2,79,NA,51.1864862,3.4981566,"Oost-Vlaanderen",NA,"waterbeleid@oost-vlaanderen.be"
FALSE,FALSE,"Over Leiestraat",NA,NA,NA,"YES","I_9910_1",NA,NA,"VMM_Mtp","Lotisch",NA,"Oost-Vlaanderen","Aalter",9910,2,1036,NA,51.11841190255,3.38813326036729,"Oost-Vlaanderen",NA,"waterbeleid@oost-vlaanderen.be"
FALSE,FALSE,"Bellem, Eksterstraat","Fortloop",NA,NA,"YES","I_9881_1",NA,NA,"VMM_Mtp","Lotisch",NA,"Oost-Vlaanderen","Aalter",9881,2,397,NA,51.1045717,3.5072512,"Oost-Vlaanderen",NA,"waterbeleid@oost-vlaanderen.be"
FALSE,FALSE,"Vinderhoute,Bulken,Langendam","Merebeek",NA,NA,"YES","I_9031_1",NA,NA,"VMM_Mtp","Lotisch",NA,"Oost-Vlaanderen","Gent",9031,1,402,NA,51.0822353727111,3.65431781869872,"VMM",NA,"d.slootmaekers@vmm.be"
FALSE,FALSE,"Stoktevijver,opw brug","'T Liefken","ntiwzdk2","03/08/2024","YES","I_9930_1",NA,NA,"VMM_Mtp","Lotisch",NA,"Oost-Vlaanderen","Lievegem",9930,1,464,NA,51.1413859,3.559788,"VMM",NA,"d.slootmaekers@vmm.be"
FALSE,FALSE,"Lievetragel,Beirtje,Beirtjesbrug","'T Liefken",NA,NA,"YES","I_9950_1",NA,NA,"VMM_Mtp","Lotisch",NA,"Oost-Vlaanderen","Lievegem",9950,1,24,NA,51.1388673,3.6152727,"VMM",NA,"d.slootmaekers@vmm.be"
FALSE,FALSE,"Lievetragal,thv pompstation","'T Liefken",NA,NA,"YES","I_9950_2",NA,NA,"VMM_Mtp","Lotisch",NA,"Oost-Vlaanderen","Lievegem",9950,1,24,NA,51.133781477541,3.62695594594898,"VMM",NA,"d.slootmaekers@vmm.be"
FALSE,FALSE,"Boterhoek,Klaverkesbrug","'T Liefken",NA,NA,"YES","I_9920_2",NA,NA,"VMM_Mtp","Lotisch",NA,"Oost-Vlaanderen","Lievegem",9920,1,24,NA,51.1207378430316,3.64134613078245,"VMM",NA,"d.slootmaekers@vmm.be"
FALSE,FALSE,"Westbeke","Nieuwe Kale",NA,NA,"YES","I_9940_3",NA,NA,"VMM_Mtp","Lotisch",NA,"Oost-Vlaanderen","Evergem",9940,1,625,NA,51.093148493259,3.6754492521055,"VMM",NA,"d.slootmaekers@vmm.be"
FALSE,FALSE,"Sleidinge,Bosstraat","Brakeleike",NA,NA,"YES","I_9940_4",NA,NA,"VMM_Mtp","Lotisch",NA,"Oost-Vlaanderen","Evergem",9940,1,487,NA,51.1460373221646,3.64641163237818,"VMM",NA,"d.slootmaekers@vmm.be"
FALSE,FALSE,"De Munt, Vlamingweg, opw baangrachten én drainagebuis","Herselingloop",NA,NA,"YES","I_2990_5","bij voorkeur tussen 20/07 - 01/09",NA,"VMM_Mtp","Lotisch",NA,"Antwerpen","Wuustwezel",2990,2,10056,NA,51.4142404824184,4.69735451385203,"Antwerpen",NA,"hans.vanloy@provincieantwerpen.be"
FALSE,FALSE,"Moerkerke, Moerkerkebrug","Hoge Watering",NA,NA,"YES","I_8340_1",NA,NA,"VMM_Mtp","Lotisch",NA,"West-Vlaanderen","Damme",8340,2,2129,NA,51.240441022406,3.34660122792188,"Oostkustpolder","050/333271","waterbeheer@oostkustpolder.be"
FALSE,FALSE,"Lapscheure, Natienlaan","Zevengemete",NA,NA,"YES","I_8340_2",NA,NA,"VMM_Mtp","Lotisch",NA,"West-Vlaanderen","Damme",8340,2,2306,NA,51.2791619183105,3.35029527857361,"Oostkustpolder","050/333271","waterbeheer@oostkustpolder.be"
FALSE,FALSE,"Sijsele, Brieversweg, Kaleshoek","Kaleshoekbeek",NA,NA,"YES","I_8340_3",NA,NA,"VMM_Mtp","Lotisch",NA,"West-Vlaanderen","Damme",8340,2,2713,NA,51.2317014454063,3.36420334023601,"Oostkustpolder","050/333271","waterbeheer@oostkustpolder.be"
FALSE,FALSE,"Ulicoten; Hoogstratensebaan, opw Baarlebrug","Merkske",NA,NA,"YES","I_2387_6","bij voorkeur tussen 20/07 - 01/09",NA,"VMM_Mtp","Lotisch",NA,"Antwerpen","Baarle-Hertog",2387,2,9617,NA,51.4159616258278,4.84663682889199,"Antwerpen",NA,"hans.vanloy@provincieantwerpen.be"
FALSE,FALSE,"Afwaarts overloop rietvijver, via Witte-keienweg","Staakheuvelse Loop",NA,NA,"YES","I_2330_2","bij voorkeur tussen 20/07 - 01/09",NA,"VMM_Mtp","Lotisch",NA,"Antwerpen","Baarle-Hertog",2330,2,9878,NA,51.4127360447867,4.84860138922937,"Antwerpen",NA,"hans.vanloy@provincieantwerpen.be"
FALSE,FALSE,"Zondereigen; Ginhoven, opw(FC) en afw(BIO) brug","Noordermark",NA,NA,"YES","I_2387_1","bij voorkeur tussen 20/07 - 01/09",NA,"VMM_Mtp","Lotisch",NA,"Antwerpen","Baarle-Hertog",2387,2,9670,NA,51.4071976980707,4.87074729197294,"Antwerpen",NA,"hans.vanloy@provincieantwerpen.be"
FALSE,FALSE,"Grens Baarle Hertog; via Bruul en 130m zandweg","Noordermark",NA,NA,"YES","I_2387_2","bij voorkeur tussen 20/07 - 01/09",NA,"VMM_Mtp","Lotisch",NA,"Antwerpen","Baarle-Hertog",2387,2,9670,NA,51.4002955257167,4.89749933413491,"Antwerpen",NA,"hans.vanloy@provincieantwerpen.be"
FALSE,FALSE,"Ginhoven, zijweg Zondereigen 94","Ginhovenloop",NA,NA,"YES","I_2387_4","bij voorkeur tussen 20/07 - 01/09",NA,"VMM_Mtp","Lotisch",NA,"Antwerpen","Baarle-Hertog",2387,2,9827,NA,51.4075023073136,4.87730382273331,"Antwerpen",NA,"hans.vanloy@provincieantwerpen.be"
FALSE,FALSE,"St-Jozef, Hoge Heideweg, opw weg","Dellenloop",NA,NA,"YES","I_2310_1","bij voorkeur tussen 20/07 - 01/09",NA,"VMM_Mtp","Lotisch",NA,"Antwerpen","Rijkevorsel",2310,2,9999,NA,51.3350129245959,4.78299982706928,"Antwerpen",NA,"hans.vanloy@provincieantwerpen.be"
FALSE,FALSE,"Bethanië, einde Leemputweg","Antitankkanaal",NA,NA,"YES","I_2930_1",NA,NA,"VMM_Mtp","Lotisch",NA,"Antwerpen","Brasschaat",2930,1,113,NA,51.3214046473438,4.50540221018621,"VMM",NA,"d.slootmaekers@vmm.be"
FALSE,FALSE,"Weelde; Litse Heide, zijwegje Meir, opw. weg","Leyloop",NA,NA,"YES","I_2381_1","bij voorkeur tussen 20/07 - 01/09",NA,"VMM_Mtp","Lotisch",NA,"Antwerpen","Ravels",2381,2,9511,NA,51.4274109035644,4.98696279754626,"Antwerpen",NA,"hans.vanloy@provincieantwerpen.be"
FALSE,FALSE,"Slijpe, Donkermaneschijnweg, opw de weg","Slijpeduikergeleed",NA,NA,"YES","I_8433_3",NA,NA,"VMM_Mtp","Lotisch",NA,"West-Vlaanderen","Middelkerke",8433,2,234,NA,51.1590998191821,2.84819083442785,"Middenkustpolder","059/278477","info@middenkustpolder.be"
FALSE,FALSE,"Mexicooooooooooostraat","Blekerijbeek",NA,NA,"YES","I_8480_1",NA,NA,"VMM_Mtp","Lotisch",NA,"West-Vlaanderen","Ichtegem",8480,2,1523,NA,51.087488265013,3.01011453291905,"West-Vlaanderen",NA,NA
FALSE,FALSE,"Noordmiddenstraat, thv huisnr 7","Aletebeek",NA,NA,"YES","I_8480_2",NA,NA,"VMM_Mtp","Lotisch",NA,"West-Vlaanderen","Ichtegem",8480,2,1921,NA,51.1364702696876,3.03801309237485,"West-Vlaanderen",NA,NA
FALSE,FALSE,"Bekegem, Bruggestraat, Boskapel","Bekegemsebeek","njvknjc4",NA,"YES","I_8480_3",NA,NA,"VMM_Mtp","Lotisch",NA,"West-Vlaanderen","Ichtegem",8480,2,1844,NA,51.1420495,3.0641461,"West-Vlaanderen",NA,NA
FALSE,FALSE,"Snellegem, Isenbaartstraat, afw Snellegem","Witterusbeek",NA,NA,"YES","I_8490_1",NA,NA,"VMM_Mtp","Lotisch",NA,"West-Vlaanderen","Jabbeke",8490,2,2223,NA,51.1752381439749,3.1130205550455,"Nieuwe Polder van Blankenberge","050/321790","info@polderblankenberge.be"
FALSE,FALSE,"Boereweg","Zuiddambeek",NA,NA,"YES","I_8730_1",NA,NA,"VMM_Mtp","Lotisch",NA,"West-Vlaanderen","Beernem",8730,2,1170,NA,51.1571300336695,3.31813251478183,"Oostkustpolder","050/333271","waterbeheer@oostkustpolder.be"
FALSE,FALSE,"Hoornstraat","Biezemoerbeek","otg3mza0",NA,"YES","I_8730_2",NA,NA,"VMM_Mtp","Lotisch",NA,"West-Vlaanderen","Beernem",8730,2,1118,NA,51.1465229,3.3499989,"West-Vlaanderen",NA,NA
FALSE,FALSE,"Weelde; Schootseweg, naast weg, opw monding in Aa","Witvenloop",NA,NA,"YES","I_2381_2","bij voorkeur tussen 20/07 - 01/09",NA,"VMM_Mtp","Lotisch",NA,"Antwerpen","Ravels",2381,2,9677,NA,51.4124820025411,5.041452602098,"Antwerpen",NA,"hans.vanloy@provincieantwerpen.be"
FALSE,FALSE,"Assebroek, Looweideweg","St. Trudoledeken","mdjjotdj","29/06/2024","YES","I_8730_3","waterpeil te laag!",NA,"VMM_Mtp","Lotisch",NA,"West-Vlaanderen","Beernem",8730,2,2616,NA,51.1900815,3.2877933,"Oostkustpolder","050/333271","waterbeheer@oostkustpolder.be"
FALSE,FALSE,"Sint-Michiels, Rijselstraat, Stokvelde","Kerkebeek",NA,NA,"YES","I_8200_1",NA,NA,"VMM_Mtp","Lotisch",NA,"West-Vlaanderen","Brugge",8200,1,54716,NA,51.1753274099865,3.20975144095411,"VMM",NA,"d.slootmaekers@vmm.be"
FALSE,FALSE,"De Hutten, thv grenspaal 1843, opw oostzijde weg","Kolksgracht","otjhnmm0",NA,"YES","I_3920_4",NA,NA,"VMM_Mtp","Lotisch",NA,"Limburg","Lommel",3920,2,9507,NA,51.2756285,5.3464537,"Limburg",NA,"christel.bouchet@limburg.be"
FALSE,FALSE,"Bruggestraat","Rollewegbeek",NA,NA,"YES","I_8210_1",NA,NA,"VMM_Mtp","Lotisch",NA,"West-Vlaanderen","Zedelgem",8210,2,63966,NA,51.1244872122695,3.1237838717553,"West-Vlaanderen",NA,NA
FALSE,FALSE,"Waterstraat, Nieuwenhove","Rivierbeek",NA,NA,"YES","I_8020_2",NA,NA,"VMM_Mtp","Lotisch",NA,"West-Vlaanderen","Oostkamp",8020,1,28,NA,51.1254840595753,3.23523007588681,"VMM",NA,"d.slootmaekers@vmm.be"
FALSE,FALSE,"Ketelbuiserstraat","Regenbeek",NA,NA,"YES","I_8810_1",NA,NA,"VMM_Mtp","Lotisch",NA,"West-Vlaanderen","Lichtervelde",8810,2,128,NA,51.05623761283,3.14036295004352,"West-Vlaanderen",NA,NA
FALSE,FALSE,"Merelaarstraat, voor kapel rechtes (slagboom privéweg)","Rivierbeek",NA,NA,"YES","I_8820_1",NA,NA,"VMM_Mtp","Lotisch",NA,"West-Vlaanderen","Torhout",8820,2,28,NA,51.0557343036332,3.1257975966084,"West-Vlaanderen",NA,NA
FALSE,FALSE,"Schuiferskapellestraat, zijweg","Poelvoordebeek",NA,NA,"YES","I_8750_1",NA,NA,"VMM_Mtp","Lotisch",NA,"West-Vlaanderen","Wingene",8750,2,1115,NA,51.0444402938767,3.31566918553463,"West-Vlaanderen",NA,NA
FALSE,FALSE,"Grote Heide, thv natuurreservaat Hageven, opw brug","Dommel",NA,NA,"YES","I_3910_1",NA,NA,"VMM_Mtp","Lotisch",NA,"Limburg","Pelt",3910,1,9512,NA,51.2678490804417,5.42832833729296,"VMM",NA,"d.slootmaekers@vmm.be"
FALSE,FALSE,"Beveren, Lindestraat, afw","Neerloopbeek",NA,NA,"YES","I_8691_2",NA,NA,"VMM_Mtp","Lotisch",NA,"West-Vlaanderen","Alveringem",8691,2,1891,NA,50.9516080509867,2.66571168615215,"Zuidijzerpolder","057/401104","info@zuidijzerpolder.be"
FALSE,FALSE,"Stavele, Lindestraat, afw","Lepkenbeek",NA,NA,"YES","I_8691_3",NA,NA,"VMM_Mtp","Lotisch",NA,"West-Vlaanderen","Alveringem",8691,2,1920,NA,50.9548744048821,2.67521650849631,"Zuidijzerpolder","057/401104","info@zuidijzerpolder.be"
FALSE,FALSE,"Esen, Vladslostraat, afw","Handzamevaart",NA,NA,"YES","I_8600_2",NA,NA,"VMM_Mtp","Lotisch",NA,"West-Vlaanderen","Diksmuide",8600,1,1208,NA,51.0365100617293,2.90772740515308,"VMM",NA,"d.slootmaekers@vmm.be"
FALSE,FALSE,"Vladslo, Einsdijkstraat, br. Eindsdijk-Esenbroek","Handzamevaart","nznmytqy",NA,"YES","I_8600_3",NA,NA,"VMM_Mtp","Lotisch",NA,"West-Vlaanderen","Diksmuide",8600,1,1208,NA,51.0345673,2.9266385,"VMM",NA,"d.slootmaekers@vmm.be"
FALSE,FALSE,"Vaartweg, 20 m opw. monding Eindergatloop, RO, thv afspanning Dommelhof","Dommel",NA,NA,"YES","I_3910_3",NA,NA,"VMM_Mtp","Lotisch",NA,"Limburg","Pelt",3910,1,9512,NA,51.233784,5.4218546,"VMM",NA,"d.slootmaekers@vmm.be"
FALSE,FALSE,"Bakvoordestraat-zijweg,afw samenvl.","Handzamevaart",NA,NA,"YES","I_8820_2",NA,NA,"VMM_Mtp","Lotisch",NA,"West-Vlaanderen","Torhout",8820,2,1208,NA,51.0413733916461,3.09598941333798,"West-Vlaanderen",NA,NA
FALSE,FALSE,"Zarren, Steenstraat, weg Werk.-Roggev.","Zarrenbeek",NA,NA,"YES","I_8610_2",NA,NA,"VMM_Mtp","Lotisch",NA,"West-Vlaanderen","Kortemark",8610,1,1496,NA,51.0237421751243,2.94657324619157,"VMM",NA,"d.slootmaekers@vmm.be"
FALSE,FALSE,"Delaeystraat, Hazewind","Kruisbeek",NA,NA,"YES","I_8830_1",NA,NA,"VMM_Mtp","Lotisch",NA,"West-Vlaanderen","Hooglede",8830,2,1710,NA,50.9868322570367,3.03223250230022,"West-Vlaanderen",NA,NA
FALSE,FALSE,"Roeselaarse Weg, Sneppe","Handzamevaart",NA,NA,"YES","I_8820_4",NA,NA,"VMM_Mtp","Lotisch",NA,"West-Vlaanderen","Torhout",8820,2,1208,NA,51.0388926554761,3.10774978685865,"West-Vlaanderen",NA,NA
FALSE,FALSE,"Leysafortstraat","Handzamevaart",NA,NA,"YES","I_8810_2",NA,NA,"VMM_Mtp","Lotisch",NA,"West-Vlaanderen","Lichtervelde",8810,2,1208,NA,51.02430803923,3.15371612428014,"West-Vlaanderen",NA,NA
FALSE,FALSE,"Woumen, Noordbroekstraat, Rillebroek, afw","Stenensluisvaart",NA,NA,"YES","I_8600_4",NA,NA,"VMM_Mtp","Lotisch",NA,"West-Vlaanderen","Diksmuide",8600,1,1379,NA,50.9946806723887,2.8366845856402,"VMM",NA,"d.slootmaekers@vmm.be"
FALSE,FALSE,"Rijselseweg - zijweg langs spoorweg - stroomopw stuw","Ieperlee",NA,NA,"YES","I_8900_1",NA,NA,"VMM_Mtp","Lotisch",NA,"West-Vlaanderen","Ieper",8900,1,1206,NA,50.8357534629527,2.89151522679454,"VMM",NA,"d.slootmaekers@vmm.be"
FALSE,FALSE,"Voormezele, Armentierseweg","Diependaalbeek",NA,NA,"YES","I_8953_3",NA,NA,"VMM_Mtp","Lotisch",NA,"West-Vlaanderen","Heuvelland",8953,2,1376,NA,50.8019754724267,2.89029095862716,"West-Vlaanderen",NA,NA
FALSE,FALSE,"Wijtschate, Kroonaardstraat","Ieperlee",NA,NA,"YES","I_8953_4",NA,NA,"VMM_Mtp","Lotisch",NA,"West-Vlaanderen","Heuvelland",8953,2,1206,NA,50.7895898077878,2.86941664502741,"West-Vlaanderen",NA,NA
FALSE,FALSE,"Kemmel, Kriekstraat, afwaarts","Willebeek",NA,NA,"YES","I_8956_1",NA,NA,"VMM_Mtp","Lotisch",NA,"West-Vlaanderen","Heuvelland",8956,2,2019,NA,50.7969742988662,2.83006705897839,"West-Vlaanderen",NA,NA
FALSE,FALSE,"Kemmel, Willebeek, speelplein-wandelpad","Willebeek",NA,NA,"YES","I_8956_2",NA,NA,"VMM_Mtp","Lotisch",NA,"West-Vlaanderen","Heuvelland",8956,2,2031,NA,50.7868584431721,2.82730545708217,"West-Vlaanderen",NA,NA
FALSE,FALSE,"Merkem, Ketsedijk","Martjevaart",NA,NA,"YES","I_8650_1",NA,NA,"VMM_Mtp","Lotisch",NA,"West-Vlaanderen","Houthulst",8650,1,1216,NA,50.9552018864345,2.8333189679572,"VMM",NA,"d.slootmaekers@vmm.be"
FALSE,FALSE,"Langemark, Sint-Juliaan, Brugseweg, afw samenvloei","Martjevaart",NA,NA,"YES","I_8920_1",NA,NA,"VMM_Mtp","Lotisch",NA,"West-Vlaanderen","Langemark-Poelkapelle",8920,2,1216,NA,50.8895765262774,2.93663293830138,"West-Vlaanderen",NA,NA
FALSE,FALSE,"Roeselarestraat","Nieuwebeek",NA,NA,"YES","I_8920_2",NA,NA,"VMM_Mtp","Lotisch",NA,"West-Vlaanderen","Langemark-Poelkapelle",8920,2,1377,NA,50.8874606495509,2.97221880828904,"West-Vlaanderen",NA,NA
FALSE,FALSE,"Poelkapelle, Lange Molenstraat, afw Paddebeek","Lekkerboterbeek",NA,NA,"YES","I_8920_3",NA,NA,"VMM_Mtp","Lotisch",NA,"West-Vlaanderen","Langemark-Poelkapelle",8920,2,1543,NA,50.9137032189201,2.97963028871744,"West-Vlaanderen",NA,NA
FALSE,FALSE,"Reninge, Bernardplaatsstraat, Bernardusplasbrug","Kemmelbeek",NA,NA,"YES","I_8647_2",NA,NA,"VMM_Mtp","Lotisch",NA,"West-Vlaanderen","Lo-Reninge",8647,1,1204,NA,50.9226917307556,2.82523535053305,"VMM",NA,"d.slootmaekers@vmm.be"
FALSE,FALSE,"Zuidschote, op baan Zuidschote-Reninge (saf!)","Kemmelbeek",NA,NA,"YES","I_8647_3",NA,NA,"VMM_Mtp","Lotisch",NA,"West-Vlaanderen","Lo-Reninge",8647,1,1204,NA,50.9146201237879,2.82542957578574,"VMM",NA,"d.slootmaekers@vmm.be"
FALSE,FALSE,"Reningelst, Vlamertingseweg zijweg, afw Reningelst","Kemmelbeek",NA,NA,"YES","I_8970_1",NA,NA,"VMM_Mtp","Lotisch",NA,"West-Vlaanderen","Poperinge",8970,2,1204,NA,50.8232239344434,2.77776441473269,"West-Vlaanderen",NA,NA
FALSE,FALSE,"Oostvleteren, Stavelestraat, Evershamhoeve","Poperingevaart","nzm3mdi0",NA,"YES","I_8640_1",NA,NA,"VMM_Mtp","Lotisch",NA,"West-Vlaanderen","Vleteren",8640,1,1203,NA,50.9468729,2.7163548,"VMM",NA,"d.slootmaekers@vmm.be"
FALSE,FALSE,"Pezelhoekstraat, Reepje","Poperingevaart",NA,NA,"YES","I_8970_2",NA,NA,"VMM_Mtp","Lotisch",NA,"West-Vlaanderen","Poperinge",8970,1,1203,NA,50.8662181100763,2.74468081969242,"VMM",NA,"d.slootmaekers@vmm.be"
FALSE,FALSE,"Ouderdomseweg","Hazelbeek",NA,NA,"YES","I_8970_3",NA,NA,"VMM_Mtp","Lotisch",NA,"West-Vlaanderen","Poperinge",8970,2,1997,NA,50.8371480704287,2.76033888712474,"West-Vlaanderen",NA,NA
FALSE,FALSE,"Haringe, Heyenbrugstraat","Heidebeek",NA,NA,"YES","I_8972_3",NA,NA,"VMM_Mtp","Lotisch",NA,"West-Vlaanderen","Poperinge",8972,1,1217,NA,50.9030628607626,2.60604068063125,"VMM",NA,"d.slootmaekers@vmm.be"
FALSE,FALSE,"Wijchmaal, onverhard einde Elsevaart, opw. brugje","Bollisenbeek",NA,NA,"YES","I_3990_3",NA,NA,"VMM_Mtp","Lotisch",NA,"Limburg","Peer",3990,2,9702,NA,51.0989402545037,5.40376664302623,"Limburg",NA,"christel.bouchet@limburg.be"
FALSE,FALSE,"Bovenstestr, opw weg en zijgrachtjes","Kleinbeek",NA,NA,"YES","I_3990_4",NA,NA,"VMM_Mtp","Lotisch",NA,"Limburg","Peer",3990,2,9633,NA,51.1269890949841,5.4329174487008,"Limburg",NA,"christel.bouchet@limburg.be"
FALSE,FALSE,"Hamont, Kluizerdijk, voor Achelse Kluis, 20m opw brug","Warmbeek",NA,NA,"YES","I_3930_2",NA,NA,"VMM_Mtp","Lotisch",NA,"Limburg","Hamont-Achel",3930,1,9508,NA,51.2955648364893,5.48764416736356,"VMM",NA,"d.slootmaekers@vmm.be"
FALSE,FALSE,"Achel, Koebroekerweg, einde traj 80m afw brug, begin traj aan gewone es op RO","Warmbeek",NA,NA,"YES","I_3930_3",NA,NA,"VMM_Mtp","Lotisch",NA,"Limburg","Hamont-Achel",3930,1,9508,NA,51.2663016135025,5.49274396429746,"VMM",NA,"d.slootmaekers@vmm.be"
FALSE,FALSE,"St-Huibrechts-Lille, Geuskens, afw 101600 tot 10m voor de brug","Warmbeek","yjvinjli",NA,"YES","I_3910_4",NA,NA,"VMM_Mtp","Lotisch",NA,"Limburg","Pelt",3910,1,9508,NA,51.2402072,5.4952079,"VMM",NA,"d.slootmaekers@vmm.be"
FALSE,FALSE,"Kaulille, 5m opw brug en 102500","Warmbeek",NA,NA,"YES","I_3950_6",NA,NA,"VMM_Mtp","Lotisch",NA,"Limburg","Bocholt",3950,2,9508,NA,51.1968064927635,5.49538932476128,"Limburg",NA,"christel.bouchet@limburg.be"
FALSE,FALSE,"Kaulille; verlengde Molenstraat; einde traject 5m afw brug","Warmbeek","mdflzwm0","31/08/24","YES","I_3950_7","NIET GEBRUIKEN, net elektrisch afgevist",NA,"VMM_Mtp","Lotisch",NA,"Limburg","Bocholt",3950,2,9508,NA,51.1835538,5.5012483,"Limburg",NA,"christel.bouchet@limburg.be"
FALSE,FALSE,"Molenbeersel, Grootbroekstr, onverharde weg thv Donkerdijk, to richting natuurreservaat","Lossing",NA,NA,"YES","I_3640_5",NA,NA,"VMM_Mtp","Lotisch",NA,"Limburg","Kinrooi",3640,1,9967,NA,51.1581748,5.7153303,"VMM",NA,"d.slootmaekers@vmm.be"
FALSE,FALSE,"Ittervoortweg; onverharde weg langs sportpark, links en vervolgens rechtsaf tss de velden door, begin traject 10m afw prikkeldraad + stuk tot aan bocht, opw brug (ca 30m)","Itterbeek",NA,NA,"YES","I_3640_13",NA,NA,"VMM_Mtp","Lotisch",NA,"Limburg","Kinrooi",3640,1,9522,NA,51.1615079624242,5.83326761628199,"VMM",NA,"d.slootmaekers@vmm.be"
FALSE,FALSE,"Kessenich, opw 114000","Itterbeek",NA,NA,"YES","I_3640_14",NA,NA,"VMM_Mtp","Lotisch",NA,"Limburg","Kinrooi",3640,1,9522,NA,51.1570656653496,5.79221185990336,"VMM",NA,"d.slootmaekers@vmm.be"
FALSE,FALSE,"Tongerlo; langs Groenstraat; begin traject achter huisnummer 20 aan brugje","Itterbeek",NA,NA,"YES","I_3960_1",NA,NA,"VMM_Mtp","Lotisch",NA,"Limburg","Bree",3960,2,9522,NA,51.1269079802501,5.66633943607268,"Limburg",NA,"christel.bouchet@limburg.be"
FALSE,FALSE,"Kinrooi; begin traject 10m opw brug aan MP 125000","Abeek",NA,NA,"YES","I_3640_7",NA,NA,"VMM_Mtp","Lotisch",NA,"Limburg","Kinrooi",3640,1,9505,NA,51.1260420193059,5.81202498788289,"VMM",NA,"d.slootmaekers@vmm.be"
FALSE,FALSE,"Bocholt; begin MF-traject 300m afw MP 128000","Abeek",NA,NA,"YES","I_3950_8",NA,NA,"VMM_Mtp","Lotisch",NA,"Limburg","Bocholt",3950,1,9505,NA,51.1796673128012,5.63179288474762,"VMM",NA,"d.slootmaekers@vmm.be"
FALSE,FALSE,"Bree; zijweg Abroxweg; begin traject 30m opw brug","Abeek",NA,NA,"YES","I_3960_2",NA,NA,"VMM_Mtp","Lotisch",NA,"Limburg","Bree",3960,1,9505,NA,51.1660006165873,5.59793589619308,"VMM",NA,"d.slootmaekers@vmm.be"
FALSE,FALSE,"Ellikom, Neermolenstraat, begin traject 100 m afw verval aan Neermolen, Xcoördinaat","Abeek",NA,NA,"YES","I_3670_4",NA,NA,"VMM_Mtp","Lotisch",NA,"Limburg","Oudsbergen",3670,2,9505,NA,51.134490824116,5.52140504391744,"Limburg",NA,"christel.bouchet@limburg.be"
FALSE,FALSE,"Ellikom, Brogelerweg, einde traject 10m afw brug","Abeek",NA,NA,"YES","I_3670_5",NA,NA,"VMM_Mtp","Lotisch",NA,"Limburg","Oudsbergen",3670,2,9505,NA,51.1309585573803,5.52133212499817,"Limburg",NA,"christel.bouchet@limburg.be"
FALSE,FALSE,"Boekhoute,Braakmanstraat,Vrije Dijk","Zwartesluisbeek","ztbjotzi",NA,"YES","I_9961_1",NA,NA,"VMM_Mtp","Lotisch",NA,"Oost-Vlaanderen","Assenede",9961,1,2802,NA,51.2703389,3.7417801,"VMM",NA,"d.slootmaekers@vmm.be"
FALSE,FALSE,"Boekhoute,Scheurhoekstraat","Zwartesluisbeek","ztbjotzi",NA,"YES","I_9960_2",NA,NA,"VMM_Mtp","Lotisch",NA,"Oost-Vlaanderen","Assenede",9960,1,2802,NA,51.2612472,3.7634203,"VMM",NA,"d.slootmaekers@vmm.be"
FALSE,FALSE,"18/7-8; Wurfeld;onverharde zijweg van Wurfeldermolenweg; begin traject vanaf bomenrij","Bosbeek",NA,NA,"YES","I_3680_5",NA,NA,"VMM_Mtp","Lotisch",NA,"Limburg","Maaseik",3680,1,10004,NA,51.0939041291675,5.76476057834479,"VMM",NA,"d.slootmaekers@vmm.be"
FALSE,FALSE,"18/7-8;Opoeteren; Volmolenstraat ; einde traject 20m afw verval aan MP 135000","Bosbeek",NA,NA,"YES","I_3680_6",NA,NA,"VMM_Mtp","Lotisch",NA,"Limburg","Maaseik",3680,1,10004,NA,51.0777338042151,5.67510725843161,"VMM",NA,"d.slootmaekers@vmm.be"
FALSE,FALSE,"Maasmechelen, begin MF-traject 10m opw brug aan MP 139700","Kikbeek",NA,NA,"YES","I_3630_1",NA,NA,"VMM_Mtp","Lotisch",NA,"Limburg","Maasmechelen",3630,2,9986,NA,50.9620956691412,5.71756865186286,"Limburg",NA,"christel.bouchet@limburg.be"
FALSE,FALSE,"Maasmechelen, begin MF-traject 10m opw brug aan MP 139802","Kikbeek",NA,NA,"YES","I_3630_2",NA,NA,"VMM_Mtp","Lotisch",NA,"Limburg","Maasmechelen",3630,9,9986,NA,50.951726961995,5.70756305817777,NA,NA,NA
FALSE,FALSE,"Maasmechelen, einde MF-traject 20m afw brug aan MP 139820","Kikbeek",NA,NA,"YES","I_3630_3",NA,NA,"VMM_Mtp","Lotisch",NA,"Limburg","Maasmechelen",3630,2,9986,NA,50.946222433338,5.68548897774936,"Limburg",NA,"christel.bouchet@limburg.be"
FALSE,FALSE,"Kanne, opw 144000 tot 20m voor brug","Jeker",NA,NA,"YES","I_3770_1",NA,NA,"VMM_Mtp","Lotisch",NA,"Limburg","Riemst",3770,1,9504,NA,50.8158241272448,5.67058206169677,"VMM",NA,"d.slootmaekers@vmm.be"
FALSE,FALSE,"Sluizen, afw 144500","Jeker",NA,NA,"YES","I_3700_5",NA,NA,"VMM_Mtp","Lotisch",NA,"Limburg","Tongeren",3700,1,9504,NA,50.7598033965053,5.52667222273017,"VMM",NA,"d.slootmaekers@vmm.be"
FALSE,FALSE,NA,"Jeker",NA,NA,"YES","I_3700_6",NA,NA,"VMM_Mtp","Lotisch",NA,"Limburg","Tongeren",3700,1,9504,NA,50.7359768187457,5.40406151178255,"VMM",NA,"d.slootmaekers@vmm.be"
FALSE,FALSE,"34/7-8; Voeren; Route De Mouland. in bocht met Drees; begin traject 100m afw bocht (10m vanaf brug)","Voer",NA,NA,"YES","I_3798_1",NA,NA,"VMM_Mtp","Lotisch",NA,"Limburg","Voeren",3798,1,9574,NA,50.7614747369829,5.74890349481477,"VMM",NA,"d.slootmaekers@vmm.be"
FALSE,FALSE,"Boekhoute,Noorddijk-Kruisstraat,opw stuw","Isabellawatering",NA,NA,"YES","I_9961_2",NA,NA,"VMM_Mtp","Lotisch",NA,"Oost-Vlaanderen","Assenede",9961,1,2826,NA,51.2662777627813,3.68675874481061,"VMM",NA,"d.slootmaekers@vmm.be"
FALSE,FALSE,"Boekhoute,Meuleken,opw brug","Isabellawatering",NA,NA,"YES","I_9961_3",NA,NA,"VMM_Mtp","Lotisch",NA,"Oost-Vlaanderen","Assenede",9961,1,2826,NA,51.2555211458976,3.69509533315081,"VMM",NA,"d.slootmaekers@vmm.be"
FALSE,FALSE,"34/7-8; Moelingen; begin traject 60m opw monding in Maas","Berwijn",NA,NA,"YES","I_3790_2",NA,NA,"VMM_Mtp","Lotisch",NA,"Limburg","Voeren",3790,1,9536,NA,50.7552056081021,5.68432680275098,"VMM",NA,"d.slootmaekers@vmm.be"
FALSE,FALSE,"34/7-8; Moelingen; Aardeweg tussen Voerenstraat en Batticestraaat, via boomgaard; traject van klif (holle oever) tot dieper stuk","Berwijn",NA,NA,"YES","I_3790_3",NA,NA,"VMM_Mtp","Lotisch",NA,"Limburg","Voeren",3790,1,9536,NA,50.754074056706,5.72281930111601,"Jacobs Karen",NA,"recreatie.lim.anb@vlaanderen.be"
FALSE,FALSE,"Deurne; Ruggeveldlaan; begin 120m afw brug","Groot Schijn",NA,NA,"YES","I_2100_3",NA,NA,"VMM_Mtp","Lotisch",NA,"Antwerpen","Antwerpen",2100,1,3103,NA,51.214696442909,4.47972814085189,"VMM",NA,"d.slootmaekers@vmm.be"
FALSE,FALSE,"Wijnegem; Koolsveldstraat zandpad in naast huisnr. 75","Groot Schijn",NA,NA,"YES","I_2160_2",NA,NA,"VMM_Mtp","Lotisch",NA,"Antwerpen","Wommelgem",2160,1,3103,NA,51.2218731795501,4.51690343563192,"VMM",NA,"d.slootmaekers@vmm.be"
FALSE,FALSE,"Verrebroek; Paardenkerkhofstraat; in bocht opw. mtp 191050","Noordzuid Verbinding","y2uzntq0","TBD","YES","I_9130_2","GEEN TOESTEMMING EIGENAAR",NA,"VMM_Mtp","Lotisch",NA,"Oost-Vlaanderen","Beveren",9130,1,3111,NA,51.2432253,4.2025298,"VMM",NA,"d.slootmaekers@vmm.be"
FALSE,FALSE,"Verrebroek; St. Michielstraat; opw. brug","Noordzuid Verbinding",NA,NA,"YES","I_9130_3",NA,NA,"VMM_Mtp","Lotisch",NA,"Oost-Vlaanderen","Beveren",9130,1,3111,NA,51.2635802002461,4.19374704408157,"VMM",NA,"d.slootmaekers@vmm.be"
FALSE,FALSE,"Kieldrecht; Gemenestraat; opw. brug","Noordzuid Verbinding",NA,NA,"YES","I_9130_4",NA,NA,"VMM_Mtp","Lotisch",NA,"Oost-Vlaanderen","Beveren",9130,1,3111,NA,51.278521481505,4.18962110589666,"VMM",NA,"d.slootmaekers@vmm.be"
