"isReserved","updateRes","OMSCHR","NAAM","vrijwillID","startDate","SugbyINBO","locID","restricties","Sampler","dataset","SystemType","GEBIED","provincie","gemeente","postcode","CATC","VHAG","WVLC","Beheerder","Bhrtel","Bhremail","Longitude","Latitude","OIDN","UIDN","TERRID","NISCODE","NAAM.1","DATPUBLBS","NUMAC","LENGTE","OPPERVL","GEMNAAM"
"FALSE","FALSE",NA,"Abeek",NA,NA,"YES","I_3670_1",NA,NA,"VMM_Mtp","Lotisch",NA,"Limburg","Oudsbergen","3670","2","9505",NA,"Limburg",NA,"christel.bouchet@limburg.be","5.52136226787471","51.1339158997741","310","745","364","72042","Oudsbergen","2018-06-01","2018012105","582081","1163706502","Oudsbergen"
"FALSE","FALSE","Meeuwen, zijweg Berkenstr., afw weg, Meeuwen-Guitrode","Hommelbeek",NA,NA,"YES","I_3670_2","ziet er op maps dichtgegroeid uit",NA,"VMM_Mtp","Lotisch",NA,"Limburg","Oudsbergen","3670","2","9630",NA,"Limburg",NA,"christel.bouchet@limburg.be","5.5022275","51.1035905","310","745","364","72042","Oudsbergen","2018-06-01","2018012105","582081","1163706502","Oudsbergen"
"TRUE","TRUE","Meeuwen; Broekkant","Bullenbeek","owvlmtzj","TBD","YES","I_3670_3",NA,NA,"VMM_Mtp","Lotisch",NA,"Limburg","Oudsbergen","3670","2","9594",NA,"Limburg",NA,"christel.bouchet@limburg.be","5.514206","51.0895971","310","745","364","72042","Oudsbergen","2018-06-01","2018012105","582081","1163706502","Oudsbergen"
"FALSE","FALSE","Ellikom, Neermolenstraat, begin traject 100 m afw verval aan Neermolen, Xcoördinaat","Abeek",NA,NA,"YES","I_3670_4",NA,NA,"VMM_Mtp","Lotisch",NA,"Limburg","Oudsbergen","3670","2","9505",NA,"Limburg",NA,"christel.bouchet@limburg.be","5.52140503956525","51.1344908266896","310","745","364","72042","Oudsbergen","2018-06-01","2018012105","582081","1163706502","Oudsbergen"
"FALSE","FALSE","Ellikom, Brogelerweg, einde traject 10m afw brug","Abeek",NA,NA,"YES","I_3670_5",NA,NA,"VMM_Mtp","Lotisch",NA,"Limburg","Oudsbergen","3670","2","9505",NA,"Limburg",NA,"christel.bouchet@limburg.be","5.52133212064562","51.130958559955","310","745","364","72042","Oudsbergen","2018-06-01","2018012105","582081","1163706502","Oudsbergen"
"TRUE","TRUE","begin traject 100m opw molen","Abeek","mznkyti0","15/07/2024","YES","I_3670_6",NA,NA,"VMM_Mtp","Lotisch",NA,"Limburg","Oudsbergen","3670","2","9505",NA,"Limburg",NA,"christel.bouchet@limburg.be","5.51500789564836","51.1244491025758","310","745","364","72042","Oudsbergen","2018-06-01","2018012105","582081","1163706502","Oudsbergen"
"FALSE","FALSE",NA,"Ruiterskuilen","nzzlmmvm",NA,"YES","I_3660_2","te zuur",NA,NA,NA,NA,"Limburg","Oudsbergen","3660",NA,NA,NA,"Jacobs Karen",NA,"recreatie.lim.anb@vlaanderen.be","5.54272679563322","51.0490058026014","310","745","364","72042","Oudsbergen","2018-06-01","2018012105","582081","1163706502","Oudsbergen"
"FALSE","FALSE",NA,"Turfven","nzzlmmvm",NA,"YES","I_3660_3","te zuur",NA,NA,NA,NA,"Limburg","Oudsbergen","3660",NA,NA,NA,"Jacobs Karen",NA,"recreatie.lim.anb@vlaanderen.be","5.54724369563275","51.0553657026","310","745","364","72042","Oudsbergen","2018-06-01","2018012105","582081","1163706502","Oudsbergen"
"TRUE","TRUE",NA,"Watering De Vreenebeek","owvlmtzj","TBD","YES","I_3670_7",NA,NA,NA,NA,NA,"Limburg","Oudsbergen","3670",NA,NA,NA,NA,NA,NA,"5.5157167","51.0899777","310","745","364","72042","Oudsbergen","2018-06-01","2018012105","582081","1163706502","Oudsbergen"
"TRUE","TRUE",NA,"Watering De Vreenebeek","mznkyti0","TBD","YES","I_3670_8",NA,NA,NA,NA,NA,"Limburg","Oudsbergen","3670","NA","NA",NA,NA,NA,NA,"5.5232808","51.0762833","310","745","364","72042","Oudsbergen","2018-06-01","2018012105","582081","1163706502","Oudsbergen"
"TRUE","TRUE",NA,NA,"nzzlmmvm",NA,"NO","V_3660_4",NA,NA,NA,NA,NA,"Limburg","Oudsbergen","3660",NA,NA,NA,NA,NA,NA,"5.5861999956194","51.023500002614","310","745","364","72042","Oudsbergen","2018-06-01","2018012105","582081","1163706502","Oudsbergen"
"TRUE","TRUE","Ruisbroek; einde Donkstr - Vlietdijk opw. brug thv pompstation","Grote Molenbeek","zwuxmwy1","09/07/2024","YES","I_2870_1",NA,NA,"VMM_Mtp","Lotisch",NA,"Antwerpen","Puurs-Sint-Amands","2870","1","6",NA,"VMM",NA,"d.slootmaekers@vmm.be","4.31745249594477","51.0950370024481","311","746","369","12041","Puurs-Sint-Amands","2018-06-01","2018012103","4010158","4913837228","Puurs-Sint-Amands"
"TRUE","TRUE","Ruisbroek, St. Katharinastr., afw Moerloop","Birrebeek","zwuxmwy1","09/07/2024","YES","I_2870_2",NA,NA,"VMM_Mtp","Lotisch",NA,"Antwerpen","Puurs-Sint-Amands","2870","1","3106",NA,"VMM",NA,"d.slootmaekers@vmm.be","4.33886299593737","51.0746396024564","311","746","369","12041","Puurs-Sint-Amands","2018-06-01","2018012103","4010158","4913837228","Puurs-Sint-Amands"
"FALSE","FALSE","Ruisbroek; einde Donkstr - Vlietdijk; beginnen aan brug thv pompstation(mtp 225000)","Grote Molenbeek",NA,NA,"YES","I_2870_3",NA,NA,"VMM_Mtp","Lotisch",NA,"Antwerpen","Puurs-Sint-Amands","2870","1","6",NA,"VMM",NA,"d.slootmaekers@vmm.be","4.31748099594476","51.0950190024481","311","746","369","12041","Puurs-Sint-Amands","2018-06-01","2018012103","4010158","4913837228","Puurs-Sint-Amands"
"TRUE","TRUE","Puurs; Achterheide; beginnen aan fietsbrugje","Grote Molenbeek","njm2yzlk","TBD","YES","I_2890_1",NA,NA,"VMM_Mtp","Lotisch",NA,"Antwerpen","Puurs-Sint-Amands","2890","1","6",NA,"VMM",NA,"d.slootmaekers@vmm.be","4.26214469595409","51.0541728024537","311","746","369","12041","Puurs-Sint-Amands","2018-06-01","2018012103","4010158","4913837228","Puurs-Sint-Amands"
"FALSE","FALSE","Ruisbroek; Ooievaarsnest; 50m afw mtp 234000; direct na bloembak paadje inrijden tot aan slagboom","Birrebeek",NA,NA,"YES","I_2870_4",NA,NA,"VMM_Mtp","Lotisch",NA,"Antwerpen","Puurs-Sint-Amands","2870","1","3106",NA,"VMM",NA,"d.slootmaekers@vmm.be","4.34003287872214","51.0749364838182","311","746","369","12041","Puurs-Sint-Amands","2018-06-01","2018012103","4010158","4913837228","Puurs-Sint-Amands"
"FALSE","FALSE","Puurs; Gansbroekstraat; 100m opwaarts TR233000.1","Birrebeek",NA,NA,"YES","I_2870_5",NA,NA,"VMM_Mtp","Lotisch",NA,"Antwerpen","Puurs-Sint-Amands","2870","1","3106",NA,"VMM",NA,"d.slootmaekers@vmm.be","4.34349770697386","51.0795934885693","311","746","369","12041","Puurs-Sint-Amands","2018-06-01","2018012103","4010158","4913837228","Puurs-Sint-Amands"
"FALSE","FALSE",NA,NA,NA,NA,"YES","I_2870_6",NA,NA,"Scheers","Lentisch",NA,"Antwerpen","Puurs-Sint-Amands","2870",NA,NA,NA,NA,NA,NA,"4.28576239457377","51.0674495927186","311","746","369","12041","Puurs-Sint-Amands","2018-06-01","2018012103","4010158","4913837228","Puurs-Sint-Amands"
"TRUE","TRUE",NA,"Hof ter Zielbeek","zwuxmwy1","09/07/2024","NO","V_2870_7",NA,NA,NA,NA,NA,"Antwerpen","Puurs-Sint-Amands","2870",NA,NA,NA,NA,NA,NA,"4.33810379593762","51.0753132024561","311","746","369","12041","Puurs-Sint-Amands","2018-06-01","2018012103","4010158","4913837228","Puurs-Sint-Amands"
"TRUE","TRUE",NA,"Vliet","mthjnmy5","09/09/24","YES","I_2880_12",NA,NA,NA,NA,NA,"Antwerpen","Bornem","2880","NA","NA",NA,NA,NA,NA,"4.31271549594568","51.0925450024483","311","746","369","12041","Puurs-Sint-Amands","2018-06-01","2018012103","4010158","4913837228","Puurs-Sint-Amands"
"TRUE","TRUE",NA,"Koningsbeek","njm2yzlk","TBD","YES","I_2870_8",NA,NA,NA,NA,NA,"Antwerpen","Puurs-Sint-Amands","2870","NA","NA",NA,NA,NA,NA,"4.2672168959556","51.0804692024467","311","746","369","12041","Puurs-Sint-Amands","2018-06-01","2018012103","4010158","4913837228","Puurs-Sint-Amands"
"TRUE","TRUE",NA,"Vliet","njm2yzlk","TBD","YES","I_2870_9",NA,NA,NA,NA,NA,"Antwerpen","Puurs-Sint-Amands","2870","NA","NA",NA,NA,NA,NA,"4.2699230959541","51.0725540024493","311","746","369","12041","Puurs-Sint-Amands","2018-06-01","2018012103","4010158","4913837228","Puurs-Sint-Amands"
"FALSE","FALSE","Poeke,Kasteelwijk,Kasteelstraat,afw weg","Poekebeek",NA,NA,"YES","I_9880_1",NA,NA,"VMM_Mtp","Lotisch",NA,"Oost-Vlaanderen","Aalter","9880","1","27",NA,"VMM",NA,"d.slootmaekers@vmm.be","3.4518700232104","51.0401667503456","313","748","367","44084","Aalter","2018-06-01","2018012109","6156398","11985075639","Aalter"
"FALSE","FALSE","Over Leiestraat",NA,NA,NA,"YES","I_9910_1",NA,NA,"VMM_Mtp","Lotisch",NA,"Oost-Vlaanderen","Aalter","9910","2","1036",NA,"Oost-Vlaanderen",NA,"waterbeleid@oost-vlaanderen.be","3.38813325654013","51.1184119048906","313","748","367","44084","Aalter","2018-06-01","2018012109","6156398","11985075639","Aalter"
"TRUE","TRUE","Bellem, Eksterstraat","Fortloop","zgyxzdri","TBD","YES","I_9881_1",NA,NA,"VMM_Mtp","Lotisch",NA,"Oost-Vlaanderen","Aalter","9881","2","397",NA,"Oost-Vlaanderen",NA,"waterbeleid@oost-vlaanderen.be","3.5072512","51.1045717","313","748","367","44084","Aalter","2018-06-01","2018012109","6156398","11985075639","Aalter"
"ONHOLD","ONHOLD","Poeke,Kasteelstraat,afw weg","Poekebeek","zgvjogiw",NA,"YES","I_9880_2",NA,NA,"VMM_Mtp","Lotisch",NA,"Oost-Vlaanderen","Aalter","9880","1","27",NA,"VMM",NA,"d.slootmaekers@vmm.be","3.4520687","51.0394851","313","748","367","44084","Aalter","2018-06-01","2018012109","6156398","11985075639","Aalter"
"TRUE","TRUE",NA,NA,"mdjjotdj","TBD","YES","I_9880_3",NA,NA,NA,NA,NA,"Oost-Vlaanderen","Aalter","9880",NA,NA,NA,NA,NA,NA,"3.401001","51.110642","313","748","367","44084","Aalter","2018-06-01","2018012109","6156398","11985075639","Aalter"
"FALSE","FALSE",NA,"Kraenepoel",NA,NA,"NO","V_9880_4",NA,NA,NA,NA,NA,"Oost-Vlaanderen","Aalter","9880",NA,NA,NA,"Meulebrouck Klaar",NA,"recreatie.ovl.anb@vlaanderen.be","3.4819131","51.0739506","313","748","367","44084","Aalter","2018-06-01","2018012109","6156398","11985075639","Aalter"
"TRUE","TRUE",NA,NA,"zgyxzdri","TBD","NO","V_9880_5",NA,NA,NA,NA,NA,"Oost-Vlaanderen","Aalter","9880",NA,NA,NA,NA,NA,NA,"3.4753949","51.104322","313","748","367","44084","Aalter","2018-06-01","2018012109","6156398","11985075639","Aalter"
"TRUE","TRUE","Bisdonkstraat, veldwegel thv bocht","Stokstormbeek","yzc4njmw","TBD","YES","I_9770_1",NA,NA,"VMM_Mtp","Lotisch",NA,"Oost-Vlaanderen","Kruisem","9770","2","4463",NA,"Oost-Vlaanderen",NA,"waterbeleid@oost-vlaanderen.be","3.5177699","50.9454238","314","749","366","45068","Kruisem","2018-06-01","2018012104","5440716","7158974805","Kruisem"
"FALSE","FALSE","Nokere, Beerstraat",NA,NA,NA,"YES","I_9771_1",NA,NA,"VMM_Mtp","Lotisch",NA,"Oost-Vlaanderen","Kruisem","9771","2","4355",NA,"Oost-Vlaanderen",NA,"waterbeleid@oost-vlaanderen.be","3.49006596838657","50.8860573851255","314","749","366","45068","Kruisem","2018-06-01","2018012104","5440716","7158974805","Kruisem"
"FALSE","FALSE","Ouwegem, Den Bos, afw weg","Stampkotbeek",NA,NA,"YES","I_9750_1",NA,NA,"VMM_Mtp","Lotisch",NA,"Oost-Vlaanderen","Kruisem","9750","2","5274",NA,"Oost-Vlaanderen",NA,"waterbeleid@oost-vlaanderen.be","3.61659816842708","50.9214655610026","314","749","366","45068","Kruisem","2018-06-01","2018012104","5440716","7158974805","Kruisem"
"FALSE","FALSE","Huise, Driesstraat, 50m opw weg","Stampkotbeek",NA,NA,"YES","I_9750_2",NA,NA,"VMM_Mtp","Lotisch",NA,"Oost-Vlaanderen","Kruisem","9750","2","5603",NA,"Oost-Vlaanderen",NA,"waterbeleid@oost-vlaanderen.be","3.58933790113112","50.8928980594634","314","749","366","45068","Kruisem","2018-06-01","2018012104","5440716","7158974805","Kruisem"
"FALSE","FALSE","Appelhoekstraat, thv Lozerkasteel","Stampkotbeek",NA,NA,"YES","I_9770_2",NA,NA,"VMM_Mtp","Lotisch",NA,"Oost-Vlaanderen","Kruisem","9770","2","5274",NA,"Oost-Vlaanderen",NA,"waterbeleid@oost-vlaanderen.be","3.56148709710017","50.9147262688547","314","749","366","45068","Kruisem","2018-06-01","2018012104","5440716","7158974805","Kruisem"
"FALSE","FALSE","Den Bos, opw brug","Stampkotbeek",NA,NA,"YES","I_9750_3",NA,NA,"VMM_Mtp","Lotisch",NA,"Oost-Vlaanderen","Kruisem","9750","3","5274",NA,NA,NA,NA,"3.61632724519778","50.9215087764571","314","749","366","45068","Kruisem","2018-06-01","2018012104","5440716","7158974805","Kruisem"
"TRUE","TRUE","Neereichemstraat afw brug","Stampkotbeek","yzc4njmw","TBD","YES","I_9770_3",NA,NA,"VMM_Mtp","Lotisch",NA,"Oost-Vlaanderen","Kruisem","9770","2","5274",NA,"Oost-Vlaanderen",NA,"waterbeleid@oost-vlaanderen.be","3.580549","50.9240558","314","749","366","45068","Kruisem","2018-06-01","2018012104","5440716","7158974805","Kruisem"
"FALSE","FALSE","Oude Schelde Mesureput","Mesureput",NA,NA,"YES","I_9750_4",NA,NA,"EcoWater","Lentisch",NA,"Oost-Vlaanderen","Kruisem","9750",NA,NA,NA,NA,NA,NA,"3.68431519495927","50.8994297927543","314","749","366","45068","Kruisem","2018-06-01","2018012104","5440716","7158974805","Kruisem"
"FALSE","FALSE","Oude Schelde Spettekraai","Oude Schelde Spetterkraai","zgexogy3",NA,"YES","I_9750_5",NA,NA,"EcoWater","Lentisch",NA,"Oost-Vlaanderen","Kruisem","9750",NA,NA,NA,NA,NA,NA,"3.67283559608101","50.8932680024353","314","749","366","45068","Kruisem","2018-06-01","2018012104","5440716","7158974805","Kruisem"
"TRUE","TRUE",NA,"Mesureput","zgexogy3",NA,"NO","V_9750_6",NA,NA,NA,NA,NA,"Oost-Vlaanderen","Kruisem","9750",NA,NA,NA,NA,NA,NA,"3.68504699607908","50.9031710024338","314","749","366","45068","Kruisem","2018-06-01","2018012104","5440716","7158974805","Kruisem"
"FALSE","FALSE","Duffelstraat, opw overstort","Bemortelloop",NA,NA,"YES","I_2860_1","bij voorkeur tussen 20/07 - 01/09",NA,"VMM_Mtp","Lotisch",NA,"Antwerpen","Sint-Katelijne-Waver","2860","2","9147",NA,"Antwerpen",NA,"hans.vanloy@provincieantwerpen.be","4.51100889774557","51.0780082282022","2","752","169","12035","Sint-Katelijne-Waver","1976-01-23","1975123003","3556452","3615607789","Sint-Katelijne-Waver"
"FALSE","FALSE","St-Katelijne-Waver, Kempenaerstr, tov Green partners, opw weg, opw overstort","Otterbeek",NA,NA,"YES","I_2860_2","bij voorkeur tussen 20/07 - 01/09",NA,"VMM_Mtp","Lotisch",NA,"Antwerpen","Sint-Katelijne-Waver","2860","2","6949",NA,"Antwerpen",NA,"hans.vanloy@provincieantwerpen.be","4.51971394258309","51.0649904107494","2","752","169","12035","Sint-Katelijne-Waver","1976-01-23","1975123003","3556452","3615607789","Sint-Katelijne-Waver"
"TRUE","TRUE","Duffel; Beukendreef; 50m opw brug (aan dikke canadaboom)","Goorbosbeek","yjdjywix","TBD","YES","I_2860_3","bij voorkeur tussen 20/07 - 01/09",NA,"VMM_Mtp","Lotisch",NA,"Antwerpen","Sint-Katelijne-Waver","2860","2","9112",NA,"Antwerpen",NA,"hans.vanloy@provincieantwerpen.be","4.4834901","51.075153","2","752","169","12035","Sint-Katelijne-Waver","1976-01-23","1975123003","3556452","3615607789","Sint-Katelijne-Waver"
"TRUE","TRUE",NA,NA,"yjdjywix","TBD","YES","I_2860_4",NA,NA,"Scheers","Lentisch",NA,"Antwerpen","Sint-Katelijne-Waver","2860",NA,NA,NA,NA,NA,NA,"4.5109872","51.0598583","2","752","169","12035","Sint-Katelijne-Waver","1976-01-23","1975123003","3556452","3615607789","Sint-Katelijne-Waver"
"FALSE","FALSE","Wiekevorst;Valleistraat, (FC) opw en (Bio) afw brug en verval","Wimp",NA,NA,"YES","I_2222_1",NA,NA,"VMM_Mtp","Lotisch",NA,"Antwerpen","Heist-op-den-Berg","2222","1","8507",NA,"VMM",NA,"d.slootmaekers@vmm.be","4.79811729264823","51.1155493750437","11","755","150","12014","Heist-op-den-Berg","1982-12-29","1982001920","6124209","8667364961","Heist-op-den-Berg"
"FALSE","FALSE","Wiekevorst; Morkhovenseweg-Wiekevorstseweg, opw brug en overstort","Wimp",NA,NA,"YES","I_2222_2",NA,NA,"VMM_Mtp","Lotisch",NA,"Antwerpen","Heist-op-den-Berg","2222","1","8507",NA,"VMM",NA,"d.slootmaekers@vmm.be","4.80687516707186","51.1113552592211","11","755","150","12014","Heist-op-den-Berg","1982-12-29","1982001920","6124209","8667364961","Heist-op-den-Berg"
"FALSE","FALSE","Wiekevorst; Wiekevorstseweg; opw brug","Wimp",NA,NA,"YES","I_2222_3",NA,NA,"VMM_Mtp","Lotisch",NA,"Antwerpen","Heist-op-den-Berg","2222","1","8507",NA,"VMM",NA,"d.slootmaekers@vmm.be","4.80671893636519","51.1114457294394","11","755","150","12014","Heist-op-den-Berg","1982-12-29","1982001920","6124209","8667364961","Heist-op-den-Berg"
"TRUE","TRUE","Heist o/d Berg; Heistseweg; einde zandweg naast huisnr 133","Bergebeek","mmm4mzq3","TBD","YES","I_2221_1","bij voorkeur tussen 20/07 - 01/09",NA,"VMM_Mtp","Lotisch",NA,"Antwerpen","Heist-op-den-Berg","2221","2","8620",NA,"Antwerpen",NA,"hans.vanloy@provincieantwerpen.be","4.7628235958319","51.0701906025052","11","755","150","12014","Heist-op-den-Berg","1982-12-29","1982001920","6124209","8667364961","Heist-op-den-Berg"
"TRUE","TRUE","Heist o/d Berg; Booischot; Peerdsdonkendreef; einde asfaltbaan","Herseltseloop","ztfhota2","26/8/24","YES","I_2221_2","bij voorkeur tussen 20/07 - 01/09",NA,"VMM_Mtp","Lotisch",NA,"Antwerpen","Heist-op-den-Berg","2221","2","8956",NA,"Antwerpen",NA,"hans.vanloy@provincieantwerpen.be","4.78322789582454","51.0486977025138","11","755","150","12014","Heist-op-den-Berg","1982-12-29","1982001920","6124209","8667364961","Heist-op-den-Berg"
"TRUE","TRUE",NA,NA,"mmm4mzq3","TBD","NO","V_2222_4",NA,NA,NA,NA,NA,"Antwerpen","Heist-op-den-Berg","2222",NA,NA,NA,NA,NA,NA,"4.70024589585289","51.1215562024832","11","755","150","12014","Heist-op-den-Berg","1982-12-29","1982001920","6124209","8667364961","Heist-op-den-Berg"
"FALSE","FALSE",NA,"Houtvense Loop",NA,"TBD","YES","I_2221_3","Te ondiep, recent uitgegraven",NA,NA,NA,NA,"Antwerpen","Heist-op-den-Berg","2221","NA","NA",NA,NA,NA,NA,"4.7877307","51.0598654","11","755","150","12014","Heist-op-den-Berg","1982-12-29","1982001920","6124209","8667364961","Heist-op-den-Berg"
"TRUE","TRUE",NA,NA,"odcxnmmx",NA,"YES","I_2220_1",NA,NA,NA,NA,NA,"Antwerpen","Heist-op-den-Berg","2220",NA,NA,NA,NA,NA,NA,"4.74089999583951","51.0906000024968","11","755","150","12014","Heist-op-den-Berg","1982-12-29","1982001920","6124209","8667364961","Heist-op-den-Berg"
"FALSE","FALSE","Muizen, Muizenhoekstr, opw brug","Vrouwvliet",NA,NA,"YES","I_2820_1",NA,NA,"VMM_Mtp","Lotisch",NA,"Antwerpen","Bonheiden","2820","1","6553",NA,"VMM",NA,"d.slootmaekers@vmm.be","4.5278815282509","51.021293127385","23","762","184","12005","Bonheiden","1982-12-29","1982001920","3606833","2919135595","Bonheiden"
"FALSE","FALSE","Bonheiden/Muizen, einde Eikendreef, opw wandelbrug begin Mechels Broek","Vrouwvliet",NA,NA,"YES","I_2812_2",NA,NA,"VMM_Mtp","Lotisch",NA,"Antwerpen","Bonheiden","2812","1","6553",NA,"VMM",NA,"d.slootmaekers@vmm.be","4.52092124913503","51.024079986843","23","762","184","12005","Bonheiden","1982-12-29","1982001920","3606833","2919135595","Bonheiden"
"TRUE","TRUE","Rijmenam/Boortmeerbeek, Rijmenamsebn, opw 387950 en opw brug","Leibeek","ymuxmjez","TBD","YES","I_3190_4","bij voorkeur tussen 20/07 - 01/09",NA,"VMM_Mtp","Lotisch",NA,"Antwerpen","Bonheiden","3190","2","6558",NA,"Antwerpen",NA,"hans.vanloy@provincieantwerpen.be","4.58167329586854","50.9908156025078","23","762","184","12005","Bonheiden","1982-12-29","1982001920","3606833","2919135595","Bonheiden"
"FALSE","FALSE","Keerbergen, Bakestraat, aan bakkerij DITS, opw weg","Vrouwvliet",NA,NA,"YES","I_3140_1",NA,NA,"VMM_Mtp","Lotisch",NA,"Vlaams-Brabant","Keerbergen","3140","2","6553",NA,"Vlaams-Brabant",NA,"ingrid.beuls@vlaamsbrabant.be","4.62961115193262","51.0104589791963","25","764","201","24048","Keerbergen","1982-12-29","1982001920","2317355","1854284734","Keerbergen"
"FALSE","FALSE","Lo, Klarewal-zijweg","Collaertshillebeek",NA,NA,"YES","I_8647_1",NA,NA,"VMM_Mtp","Lotisch",NA,"West-Vlaanderen","Lo-Reninge","8647","2","1409",NA,"Westkustpolder","058/314653","info@westkustpolder.be","2.7244505704896","50.9936606473913","33","768","198","32030","Lo-Reninge","1982-12-29","1982001920","5318856","6339820768","Lo-Reninge"
"FALSE","FALSE","Reninge, Bernardplaatsstraat, Bernardusplasbrug","Kemmelbeek",NA,NA,"YES","I_8647_2",NA,NA,"VMM_Mtp","Lotisch",NA,"West-Vlaanderen","Lo-Reninge","8647","1","1204",NA,"VMM",NA,"d.slootmaekers@vmm.be","2.82523534681979","50.9226917330922","33","768","198","32030","Lo-Reninge","1982-12-29","1982001920","5318856","6339820768","Lo-Reninge"
"FALSE","FALSE","Zuidschote, op baan Zuidschote-Reninge (saf!)","Kemmelbeek",NA,NA,"YES","I_8647_3",NA,NA,"VMM_Mtp","Lotisch",NA,"West-Vlaanderen","Lo-Reninge","8647","1","1204",NA,"VMM",NA,"d.slootmaekers@vmm.be","2.82542957207161","50.9146201261268","33","768","198","32030","Lo-Reninge","1982-12-29","1982001920","5318856","6339820768","Lo-Reninge"
"ONHOLD","ONHOLD","Reninge, Broekstraat, Waterhoek","Kemmelbeek","ndk3mty3",NA,"YES","I_8647_4",NA,NA,"VMM_Mtp","Lotisch",NA,"West-Vlaanderen","Lo-Reninge","8647","1","1204",NA,"VMM",NA,"d.slootmaekers@vmm.be","2.7922607","50.953193","33","768","198","32030","Lo-Reninge","1982-12-29","1982001920","5318856","6339820768","Lo-Reninge"
"FALSE","FALSE","Reninge, Bernardplaatsstraat","Kemmelbeek",NA,NA,"YES","I_8647_5",NA,NA,"VMM_Mtp","Lotisch",NA,"West-Vlaanderen","Lo-Reninge","8647","1","1204",NA,"VMM",NA,"d.slootmaekers@vmm.be","2.82451022239236","50.9235453670685","33","768","198","32030","Lo-Reninge","1982-12-29","1982001920","5318856","6339820768","Lo-Reninge"
"FALSE","FALSE",NA,NA,"nzm3mdi0",NA,"YES","I_8647_6",NA,NA,NA,"Lotisch",NA,"West-Vlaanderen","Lo-Reninge","8647",NA,NA,NA,NA,NA,NA,"2.77178599630303","50.9586893023209","33","768","198","32030","Lo-Reninge","1982-12-29","1982001920","5318856","6339820768","Lo-Reninge"
"ONHOLD","ONHOLD",NA,"Lovaart","ndk3mty3",NA,"YES","I_8647_7",NA,NA,NA,"Lotisch",NA,"West-Vlaanderen","Lo-Reninge","8647","NA","NA",NA,NA,NA,NA,"2.7356841","50.9647428","33","768","198","32030","Lo-Reninge","1982-12-29","1982001920","5318856","6339820768","Lo-Reninge"
"FALSE","FALSE","Otegem, Zwevegemstraat","Kleine Kasselrijbeek",NA,NA,"YES","I_8553_1","ziet er op maps nogal overgrown uit",NA,"VMM_Mtp","Lotisch",NA,"West-Vlaanderen","Zwevegem","8553","2","4628",NA,"West-Vlaanderen",NA,NA,"3.4070089","50.813143","43","773","291","34042","Zwevegem","1976-01-23","1975123003","4429399","6361132459","Zwevegem"
"TRUE","TRUE","Sint-Denijsstraat, Kreupel, afw","Slijpbeek","zguxztnj","18/07/24","YES","I_8550_1","Waterstand te laag?",NA,"VMM_Mtp","Lotisch",NA,"West-Vlaanderen","Zwevegem","8550","2","18815",NA,"West-Vlaanderen",NA,NA,"3.340027996151","50.7950431024274","43","773","291","34042","Zwevegem","1976-01-23","1975123003","4429399","6361132459","Zwevegem"
"FALSE","FALSE","Moen,Kraaibosstraat,afw weg","Oliebergbeek",NA,NA,"YES","I_8552_1",NA,NA,"VMM_Mtp","Lotisch",NA,"West-Vlaanderen","Zwevegem","8552","2","163",NA,"West-Vlaanderen",NA,NA,"3.37833333098667","50.777913572435","43","773","291","34042","Zwevegem","1976-01-23","1975123003","4429399","6361132459","Zwevegem"
"ONHOLD","ONHOLD","Otterbeek-Sop brug bij 632350- Kappaard","Slijpbeek","ymvlzgji",NA,"YES","I_8550_2",NA,NA,"VMM_Mtp","Lotisch",NA,"West-Vlaanderen","Zwevegem","8550","2","18815",NA,"West-Vlaanderen",NA,NA,"3.359259","50.822296","43","773","291","34042","Zwevegem","1976-01-23","1975123003","4429399","6361132459","Zwevegem"
"ONHOLD","ONHOLD",NA,"Keibeek","ymvlzgji",NA,"YES","I_8550_3",NA,NA,"VMM_Mtp","Lotisch",NA,"West-Vlaanderen","Zwevegem","8550","2","4339",NA,"West-Vlaanderen",NA,NA,"3.3227587","50.8077625","43","773","291","34042","Zwevegem","1976-01-23","1975123003","4429399","6361132459","Zwevegem"
"TRUE","TRUE","Tongerlo; langs Groenstraat; begin traject achter huisnummer 20 aan brugje","Itterbeek","yzmyntdl","TBD","YES","I_3960_1",NA,NA,"VMM_Mtp","Lotisch",NA,"Limburg","Bree","3960","2","9522",NA,"Limburg",NA,"christel.bouchet@limburg.be","5.6663394","51.126908","65","786","14","72004","Bree","1982-07-17","1982001074","4116786","6498307447","Bree"
"ONHOLD","ONHOLD","Bree; zijweg Abroxweg; begin traject 30m opw brug","Abeek",NA,NA,"YES","I_3960_2",NA,NA,"VMM_Mtp","Lotisch",NA,"Limburg","Bree","3960","1","9505",NA,"VMM",NA,"d.slootmaekers@vmm.be","5.5901468","51.163471","65","786","14","72004","Bree","1982-07-17","1982001074","4116786","6498307447","Bree"
"FALSE","FALSE","Oud Kanaal Bree-Beek?","Oud Kanaal",NA,NA,"YES","I_3960_3",NA,NA,"EcoWater","Lentisch",NA,"Limburg","Bree","3960",NA,NA,NA,"Thijs Koen",NA,"recreatie.lim.anb@vlaanderen.be","5.59544999358405","51.1638837928154","65","786","14","72004","Bree","1982-07-17","1982001074","4116786","6498307447","Bree"
"ONHOLD","ONHOLD","Oud Kanaal, Dilsen?","Oud Kanaal","y2jkythh",NA,"YES","I_3960_4",NA,NA,"EcoWater","Lentisch",NA,"Limburg","Bree","3960",NA,NA,NA,"Thijs Koen",NA,"recreatie.lim.anb@vlaanderen.be","5.6011081","51.1635942","65","786","14","72004","Bree","1982-07-17","1982001074","4116786","6498307447","Bree"
"FALSE","FALSE","Hechtel-Eksel; Weyerbrugstraat; 500m afw mtp 262600","Grote Nete","yjvinjli",NA,"YES","I_3941_1",NA,NA,"VMM_Mtp","Lotisch",NA,"Limburg","Hechtel-Eksel","3941","2","8501",NA,"Limburg",NA,"christel.bouchet@limburg.be","5.33789639569645","51.1542373025465","68","787","15","72038","Hechtel-Eksel","1976-01-23","1975123003","4458363","7667768579","Hechtel-Eksel"
"FALSE","FALSE",NA,"Grote Nete","mwnhmtq1","TBD","YES","I_3940_1","TE ONDIEP!",NA,NA,NA,NA,"Limburg","Hechtel-Eksel","3940","NA","NA",NA,NA,NA,NA,"5.37796039568417","51.134146402557","68","787","15","72038","Hechtel-Eksel","1976-01-23","1975123003","4458363","7667768579","Hechtel-Eksel"
"FALSE","FALSE","Varendonk; Blaardonk-Trichelhoek, opw. brug","Grote Laak",NA,NA,"YES","I_2431_1",NA,NA,"VMM_Mtp","Lotisch",NA,"Antwerpen","Laakdal","2431","1","8503",NA,"VMM",NA,"d.slootmaekers@vmm.be","4.9556965068908","51.0870574720006","74","792","156","13053","Laakdal","1976-01-23","1975123003","4293253","424305923","Laakdal"
"FALSE","FALSE","Laakdal; Zammel; Blaardonk/Trichelhoek; opw brug mtp 324950","Grote Laak",NA,NA,"YES","I_2431_2",NA,NA,"VMM_Mtp","Lotisch",NA,"Antwerpen","Laakdal","2431","1","8503",NA,"VMM",NA,"d.slootmaekers@vmm.be","4.95573909656686","51.0870392814766","74","792","156","13053","Laakdal","1976-01-23","1975123003","4293253","424305923","Laakdal"
"TRUE","TRUE","Laakdal; Vorst; Rauwstraat; einde zandpad","Grote Laak","ztyxmjnj","TBD","YES","I_2431_3",NA,NA,"VMM_Mtp","Lotisch",NA,"Antwerpen","Laakdal","2431","1","8503",NA,"VMM",NA,"d.slootmaekers@vmm.be","5.0334369","51.0738039","74","792","156","13053","Laakdal","1976-01-23","1975123003","4293253","424305923","Laakdal"
"FALSE","FALSE","Zepperen,Terwouwenstr (N767), schuin tov huis nr 37 Shell Gaz, afw weg","Bergbeek",NA,NA,"YES","I_3800_1",NA,NA,"VMM_Mtp","Lotisch",NA,"Limburg","Sint-Truiden","3800","2","7276",NA,"Limburg",NA,"christel.bouchet@limburg.be","5.26310177861795","50.8293896986545","100","804","47","71053","Sint-Truiden","1982-07-17","1982001074","685572","10711873435","Sint-Truiden"
"FALSE","FALSE","Zepperen  Terstok, Keelstr/Stokstr, opw weg","Logebeek",NA,NA,"YES","I_3800_2",NA,NA,"VMM_Mtp","Lotisch",NA,"Limburg","Sint-Truiden","3800","2","7858",NA,"Limburg",NA,"christel.bouchet@limburg.be","5.23967851974073","50.8400397221158","100","804","47","71053","Sint-Truiden","1982-07-17","1982001074","685572","10711873435","Sint-Truiden"
"FALSE","FALSE","Sint-Truiden","Watering van Sint-Truiden",NA,NA,"YES","I_3800_3",NA,NA,"Scheers","Lentisch",NA,"Limburg","Sint-Truiden","3800",NA,NA,NA,NA,NA,NA,"5.19013049374743","50.823691692971","100","804","47","71053","Sint-Truiden","1982-07-17","1982001074","685572","10711873435","Sint-Truiden"
"FALSE","FALSE",NA,"De Plas",NA,NA,"YES","I_3530_2",NA,NA,"ANB_Mtp","Lentisch",NA,"Limburg","Houthalen-Helchteren","3530",NA,NA,NA,"Thijs Koen",NA,"recreatie.lim.anb@vlaanderen.be","5.42479167222365","51.0317436686929","106","808","22","72039","Houthalen-Helchteren","1976-01-23","1975123003","436867","7822865567","Houthalen-Helchteren"
"ONHOLD","ONHOLD","recreation area, recreatiedomein De Plas (ANB?)","De Plas","mtmzmge1",NA,"YES","I_3530_3",NA,NA,"Scheers","Lentisch",NA,"Limburg","Houthalen-Helchteren","3530",NA,NA,NA,"Thijs Koen",NA,"recreatie.lim.anb@vlaanderen.be","5.4219622","51.0330313","106","808","22","72039","Houthalen-Helchteren","1976-01-23","1975123003","436867","7822865567","Houthalen-Helchteren"
"FALSE","FALSE","Aarsele, Snephoekstraat, thv spoorweg, afw samenvl zijbeek","Speibeek",NA,NA,"YES","I_8700_1",NA,NA,"VMM_Mtp","Lotisch",NA,"West-Vlaanderen","Tielt","8700","2","4824",NA,"West-Vlaanderen",NA,NA,"3.38362533549132","50.9879693858141","122","817","181","37015","Tielt","1976-01-23","1975123003","455429","6885120853","Tielt"
"ONHOLD","ONHOLD","Schuiferskapelle,Rijkegemkouterstraat,opw weg","Kapellebeek","mjywyjqx",NA,"YES","I_8700_2",NA,NA,"VMM_Mtp","Lotisch",NA,"West-Vlaanderen","Tielt","8700","2","169",NA,"West-Vlaanderen",NA,NA,"3.354241","51.0314287","122","817","181","37015","Tielt","1976-01-23","1975123003","455429","6885120853","Tielt"
"ONHOLD","ONHOLD",NA,"Speibeek","zgvjogiw",NA,"YES","I_8700_3",NA,NA,"VMM_Mtp","Lotisch",NA,"West-Vlaanderen","Tielt","8700","2","4824",NA,"West-Vlaanderen",NA,NA,"3.4067828","50.9841638","122","817","181","37015","Tielt","1976-01-23","1975123003","455429","6885120853","Tielt"
"ONHOLD","ONHOLD","Tielt","Poekebeek","mjywyjqx",NA,"YES","I_8700_4",NA,NA,"Scheers","Lentisch",NA,"West-Vlaanderen","Tielt","8700",NA,NA,NA,NA,NA,NA,"3.3218622","51.003355","122","817","181","37015","Tielt","1976-01-23","1975123003","455429","6885120853","Tielt"
"FALSE","FALSE","Boereweg","Zuiddambeek",NA,NA,"YES","I_8730_1","beek niet eens zichtbaar op maps",NA,"VMM_Mtp","Lotisch",NA,"West-Vlaanderen","Beernem","8730","2","1170",NA,"Oostkustpolder","050/333271","waterbeheer@oostkustpolder.be","3.3181325","51.15713","133","822","116","31003","Beernem","1982-12-29","1982001920","461606","7242322727","Beernem"
"FALSE","FALSE","Hoornstraat","Biezemoerbeek","otg3mza0",NA,"YES","I_8730_2",NA,NA,"VMM_Mtp","Lotisch",NA,"West-Vlaanderen","Beernem","8730","2","1118",NA,"West-Vlaanderen",NA,NA,"3.34999889618486","51.1465229023287","133","822","116","31003","Beernem","1982-12-29","1982001920","461606","7242322727","Beernem"
"TRUE","TRUE","Assebroek, Looweideweg","St. Trudoledeken","mdjjotdj","TBD","YES","I_8730_3","waterpeil te laag!",NA,"VMM_Mtp","Lotisch",NA,"West-Vlaanderen","Beernem","8730","2","2616",NA,"Oostkustpolder","050/333271","waterbeheer@oostkustpolder.be","3.2877933","51.1900815","133","822","116","31003","Beernem","1982-12-29","1982001920","461606","7242322727","Beernem"
"TRUE","TRUE","Prov. Domein Lippensgoed-Bulskampveld, perceel 25Y",NA,"mdixota5","22/07/24","YES","I_8730_5",NA,NA,"ANB_Mtp","Lentisch",NA,"West-Vlaanderen","Beernem","8730",NA,NA,NA,"Meulebrouck Klaar",NA,"recreatie.wvl.anb@vlaanderen.be","3.29024289619531","51.1090414023329","133","822","116","31003","Beernem","1982-12-29","1982001920","461606","7242322727","Beernem"
"TRUE","TRUE","Prov. Domein Lippensgoed, Bulskampveld, eendeputten","Aanwijsputten","ndaxotdi",NA,"YES","I_8730_6",NA,NA,"ANB_Mtp","Lentisch",NA,"West-Vlaanderen","Beernem","8730",NA,NA,NA,"Meulebrouck Klaar",NA,"recreatie.wvl.anb@vlaanderen.be","3.3075512","51.1094265","133","822","116","31003","Beernem","1982-12-29","1982001920","461606","7242322727","Beernem"
"TRUE","TRUE","Prov. Domein Lippensgoed, Bulskampveld, eendeputten",NA,"ndaxotdi",NA,"YES","I_8730_7",NA,NA,"ANB_Mtp","Lentisch",NA,"West-Vlaanderen","Beernem","8730",NA,NA,NA,"Meulebrouck Klaar",NA,"recreatie.wvl.anb@vlaanderen.be","3.3079091","51.1100141","133","822","116","31003","Beernem","1982-12-29","1982001920","461606","7242322727","Beernem"
"TRUE","TRUE","Prov. Domein Lippensgoed, Bulskampveld, eendeputten",NA,"ndaxotdi",NA,"YES","I_8730_8",NA,NA,"ANB_Mtp","Lentisch",NA,"West-Vlaanderen","Beernem","8730",NA,NA,NA,"Meulebrouck Klaar",NA,"recreatie.wvl.anb@vlaanderen.be","3.3077474","51.1108487","133","822","116","31003","Beernem","1982-12-29","1982001920","461606","7242322727","Beernem"
"FALSE","FALSE",NA,NA,NA,"01/07/2024","YES","I_8730_9","is waar de vallen van mdjjotdj allemaal gestolen werden - opnieuw wagen?",NA,NA,NA,NA,"West-Vlaanderen","Beernem","8730",NA,NA,NA,NA,NA,NA,"3.2919752","51.1439286","133","822","116","31003","Beernem","1982-12-29","1982001920","461606","7242322727","Beernem"
"TRUE","TRUE",NA,NA,"ndaxotdi","TBD","YES","I_8730_10",NA,NA,NA,NA,NA,"West-Vlaanderen","Beernem","8730",NA,NA,NA,NA,NA,NA,"3.2914765","51.1165137","133","822","116","31003","Beernem","1982-12-29","1982001920","461606","7242322727","Beernem"
"TRUE","TRUE",NA,"Kanaal Gent-Brugge","otg3mza0",NA,"NO","V_8730_11",NA,NA,NA,NA,NA,"West-Vlaanderen","Beernem","8730",NA,NA,NA,NA,NA,NA,"3.33065629618858","51.1376902023291","133","822","116","31003","Beernem","1982-12-29","1982001920","461606","7242322727","Beernem"
"FALSE","FALSE","Kruiskerkestraat,opw weg","Wantebeek",NA,NA,"YES","I_8755_1",NA,NA,"VMM_Mtp","Lotisch",NA,"West-Vlaanderen","Ruiselede","8755","2","293",NA,"West-Vlaanderen",NA,NA,"3.38679599758748","51.0651014277752","140","825","164","37012","Ruiselede","1831-02-07",NA,"3359342","3062306361","Ruiselede"
"FALSE","FALSE","Vorte Bossen,Kruisbergstraat","Wantebeek",NA,NA,"YES","I_8755_2",NA,NA,"VMM_Mtp","Lotisch",NA,"West-Vlaanderen","Ruiselede","8755","2","293",NA,"West-Vlaanderen",NA,NA,"3.37355280238456","51.0766769974133","140","825","164","37012","Ruiselede","1831-02-07",NA,"3359342","3062306361","Ruiselede"
"FALSE","FALSE","Knokmolen,Knokstraat,opw weg","Poekebeek",NA,NA,"YES","I_8755_3",NA,NA,"VMM_Mtp","Lotisch",NA,"West-Vlaanderen","Ruiselede","8755","2","27",NA,"West-Vlaanderen",NA,NA,"3.38490421252177","51.0458206877354","140","825","164","37012","Ruiselede","1831-02-07",NA,"3359342","3062306361","Ruiselede"
"FALSE","FALSE","Eine,Doorn,Serpentsstraat","Marollebeek",NA,NA,"YES","I_9700_1",NA,NA,"VMM_Mtp","Lotisch",NA,"Oost-Vlaanderen","Oudenaarde","9700","2","5680",NA,"Oost-Vlaanderen",NA,"waterbeleid@oost-vlaanderen.be","3.60579301669608","50.8721764707507","144","828","258","45035","Oudenaarde","1976-01-23","1975123003","571654","689202487","Oudenaarde"
"FALSE","FALSE","Melden,Meersbloem Leupegem-Meersbloem Melden,afwaarts brug","Maarkebeek",NA,NA,"YES","I_9700_2",NA,NA,"VMM_Mtp","Lotisch",NA,"Oost-Vlaanderen","Oudenaarde","9700","1","5003",NA,"VMM",NA,"d.slootmaekers@vmm.be","3.59386957355949","50.8327042870617","144","828","258","45035","Oudenaarde","1976-01-23","1975123003","571654","689202487","Oudenaarde"
"FALSE","FALSE","Melden,Heilbroek,langs veldweg","Molenbeek","zgrhnjvm",NA,"YES","I_9700_3",NA,NA,"VMM_Mtp","Lotisch",NA,"Oost-Vlaanderen","Oudenaarde","9700","2","5294",NA,"Oost-Vlaanderen",NA,"waterbeleid@oost-vlaanderen.be","3.5572036960998","50.8054142024479","144","828","258","45035","Oudenaarde","1976-01-23","1975123003","571654","689202487","Oudenaarde"
"ONHOLD","ONHOLD","Melden,Meersbloem, Leupegem-Meersbloem, meest stroomafwaartse brugje","Maarkebeek","mzbiowix",NA,"YES","I_9700_4",NA,NA,"VMM_Mtp","Lotisch",NA,"Oost-Vlaanderen","Oudenaarde","9700","1","5003",NA,"VMM",NA,"d.slootmaekers@vmm.be","3.593942","50.8326149","144","828","258","45035","Oudenaarde","1976-01-23","1975123003","571654","689202487","Oudenaarde"
"FALSE","FALSE","Oudenaarde, brugje Wolfabriekstraat","Maarkebeek",NA,NA,"YES","I_9700_5",NA,NA,"VMM_Mtp","Lotisch",NA,"Oost-Vlaanderen","Oudenaarde","9700","1","5003",NA,"VMM",NA,"d.slootmaekers@vmm.be","3.60228437349375","50.8276801823435","144","828","258","45035","Oudenaarde","1976-01-23","1975123003","571654","689202487","Oudenaarde"
"FALSE","FALSE","Melden, Schaatsputte, Veldweg","Beiaardbeek",NA,NA,"YES","I_9700_7",NA,NA,"VMM_Mtp","Lotisch",NA,"Oost-Vlaanderen","Oudenaarde","9700","2","5002",NA,"Oost-Vlaanderen",NA,"waterbeleid@oost-vlaanderen.be","3.56450440711991","50.8099145770855","144","828","258","45035","Oudenaarde","1976-01-23","1975123003","571654","689202487","Oudenaarde"
"FALSE","FALSE","Melden, Bunderbos, opw weg","Beiaardbeek",NA,NA,"YES","I_9700_8",NA,NA,"VMM_Mtp","Lotisch",NA,"Oost-Vlaanderen","Oudenaarde","9700","2","5002",NA,"Oost-Vlaanderen",NA,"waterbeleid@oost-vlaanderen.be","3.56113982904781","50.807536041752","144","828","258","45035","Oudenaarde","1976-01-23","1975123003","571654","689202487","Oudenaarde"
"TRUE","TRUE","Oude Schelde Heurne-Heuvel","Oude Schelde Heurne","ytqwyznm","TBD","YES","I_9700_9",NA,NA,"EcoWater","Lentisch",NA,"Oost-Vlaanderen","Oudenaarde","9700",NA,NA,NA,NA,NA,NA,"3.6390284","50.8839607","144","828","258","45035","Oudenaarde","1976-01-23","1975123003","571654","689202487","Oudenaarde"
"TRUE","TRUE","Oude Schelde Nederename?","Oude Schelde Eine","ytqwyznm","TBD","YES","I_9700_10",NA,NA,"EcoWater","Lentisch",NA,"Oost-Vlaanderen","Oudenaarde","9700",NA,NA,NA,NA,NA,NA,"3.6318545","50.8663305","144","828","258","45035","Oudenaarde","1976-01-23","1975123003","571654","689202487","Oudenaarde"
"TRUE","TRUE","Oude Schelde De Sterre","Oude Schelde Heurne","ytqwyznm","TBD","YES","I_9700_11",NA,NA,"EcoWater","Lentisch",NA,"Oost-Vlaanderen","Oudenaarde","9700",NA,NA,NA,NA,NA,NA,"3.6279292","50.8797969","144","828","258","45035","Oudenaarde","1976-01-23","1975123003","571654","689202487","Oudenaarde"
"FALSE","FALSE","Oude Schelde Melden Het Veer",NA,NA,NA,"YES","I_9700_12",NA,NA,"EcoWater","Lentisch",NA,"Oost-Vlaanderen","Oudenaarde","9700",NA,NA,NA,"Coppens Xavier",NA,"recreatie.ovl.anb@vlaanderen.be","3.5754814950048","50.8202020927899","144","828","258","45035","Oudenaarde","1976-01-23","1975123003","571654","689202487","Oudenaarde"
"FALSE","FALSE","Melden, afw Berchemweg, 2de zijarm",NA,NA,NA,"YES","I_9700_13",NA,NA,"ANB_Mtp","Lentisch",NA,"Oost-Vlaanderen","Oudenaarde","9700",NA,NA,NA,"Coppens Xavier",NA,"recreatie.ovl.anb@vlaanderen.be","3.56918249937522","50.8185231293302","144","828","258","45035","Oudenaarde","1976-01-23","1975123003","571654","689202487","Oudenaarde"
"FALSE","FALSE","Melden, Berchemweg,centraal gedeelte",NA,"zgrhnjvm",NA,"YES","I_9700_14",NA,NA,"ANB_Mtp","Lentisch",NA,"Oost-Vlaanderen","Oudenaarde","9700",NA,NA,NA,"Coppens Xavier",NA,"recreatie.ovl.anb@vlaanderen.be","3.57404599609718","50.8192876024458","144","828","258","45035","Oudenaarde","1976-01-23","1975123003","571654","689202487","Oudenaarde"
"ONHOLD","ONHOLD","recreation area, Provincial dom. Donk, Oudenaarde","Donkmeer","mzbiowix",NA,"YES","I_9700_15",NA,NA,"Scheers","Lentisch",NA,"Oost-Vlaanderen","Oudenaarde","9700",NA,NA,NA,NA,NA,NA,"3.5925151","50.8422786","144","828","258","45035","Oudenaarde","1976-01-23","1975123003","571654","689202487","Oudenaarde"
"FALSE","FALSE","Oudenaarde",NA,NA,NA,"YES","I_9700_16",NA,NA,"Scheers","Lentisch",NA,"Oost-Vlaanderen","Oudenaarde","9700",NA,NA,NA,NA,NA,NA,"3.60689029437884","50.8466105931419","144","828","258","45035","Oudenaarde","1976-01-23","1975123003","571654","689202487","Oudenaarde"
"FALSE","FALSE","Oudenaarde",NA,NA,NA,"YES","I_9700_17",NA,NA,"Scheers","Lentisch",NA,"Oost-Vlaanderen","Oudenaarde","9700",NA,NA,NA,NA,NA,NA,"3.60894309507694","50.8458755928056","144","828","258","45035","Oudenaarde","1976-01-23","1975123003","571654","689202487","Oudenaarde"
"FALSE","FALSE","Oostnieuwkerke, Wallebrugstraat","Mandel",NA,NA,"YES","I_8840_1",NA,NA,"VMM_Mtp","Lotisch",NA,"West-Vlaanderen","Staden","8840","2","4203",NA,"West-Vlaanderen",NA,NA,"3.06449906265124","50.9472671107987","146","830","206","36019","Staden","1982-12-29","1982001920","3552409","4681548093","Staden"
"FALSE","FALSE","Oostnieuwkerke, Cortonstraat","Mandel",NA,NA,"YES","I_8840_2",NA,NA,"VMM_Mtp","Lotisch",NA,"West-Vlaanderen","Staden","8840","2","4203",NA,"West-Vlaanderen",NA,NA,"3.04516696265431","50.9272625574135","146","830","206","36019","Staden","1982-12-29","1982001920","3552409","4681548093","Staden"
"FALSE","FALSE","Westrozebeke, Vijverbos","Vijverbeek",NA,NA,"YES","I_8840_3",NA,NA,"VMM_Mtp","Lotisch",NA,"West-Vlaanderen","Staden","8840","2","4335",NA,"Dewulf Evy",NA,"recreatie.wvl.anb@vlaanderen.be","3.02459187930195","50.9338710309187","146","830","206","36019","Staden","1982-12-29","1982001920","3552409","4681548093","Staden"
"FALSE","FALSE","Oostnieuwkerke","Mandel",NA,NA,"YES","I_8840_4",NA,NA,"VMM_Mtp","Lotisch",NA,"West-Vlaanderen","Staden","8840","2","4203",NA,"West-Vlaanderen",NA,NA,"3.08332329261554","50.9541903606612","146","830","206","36019","Staden","1982-12-29","1982001920","3552409","4681548093","Staden"
"TRUE","TRUE","Oostenieuwkerke","Mandel","yze3nzdi","TBD","YES","I_8840_5",NA,NA,"VMM_Mtp","Lotisch",NA,"West-Vlaanderen","Staden","8840","2","4203",NA,"West-Vlaanderen",NA,NA,"3.0514924","50.93524","146","830","206","36019","Staden","1982-12-29","1982001920","3552409","4681548093","Staden"
"TRUE","TRUE",NA,"Zarrenbeek","owrjyju0","TBD","YES","I_8840_6",NA,NA,"VMM_Mtp","Lotisch",NA,"West-Vlaanderen","Staden","8840","2","1496",NA,"West-Vlaanderen",NA,NA,"3.0112606","50.9938746","146","830","206","36019","Staden","1982-12-29","1982001920","3552409","4681548093","Staden"
"FALSE","FALSE","Merkem, Ketsedijk","Martjevaart",NA,NA,"YES","I_8650_1",NA,NA,"VMM_Mtp","Lotisch",NA,"West-Vlaanderen","Houthulst","8650","1","1216",NA,"VMM",NA,"d.slootmaekers@vmm.be","2.83331896424535","50.9552018887628","155","839","203","32006","Houthulst","1982-12-29","1982001920","4145773","5602185125","Houthulst"
"FALSE","FALSE","Merkem, Ketsedijk","Martjevaart",NA,NA,"YES","I_8650_2",NA,NA,"VMM_Mtp","Lotisch",NA,"West-Vlaanderen","Houthulst","8650","1","1216",NA,"VMM",NA,"d.slootmaekers@vmm.be","2.82952413907865","50.9563211287257","155","839","203","32006","Houthulst","1982-12-29","1982001920","4145773","5602185125","Houthulst"
"FALSE","FALSE",NA,NA,NA,NA,"YES","I_8650_3",NA,NA,NA,"Lotisch",NA,"West-Vlaanderen","Houthulst","8650",NA,NA,NA,NA,NA,NA,"2.81989477308618","50.962966580813","155","839","203","32006","Houthulst","1982-12-29","1982001920","4145773","5602185125","Houthulst"
"TRUE","TRUE","Kortenaken/Kersbeek-Miskom, Bauwelstr, 10m opw brug","Velpe","ngq0zmji","TBD","YES","I_3470_1",NA,NA,"VMM_Mtp","Lotisch",NA,"Vlaams-Brabant","Kortenaken","3470","1","7155",NA,"VMM",NA,"d.slootmaekers@vmm.be","5.0343933","50.8954866","159","842","39","24054","Kortenaken","1976-01-23","1975123003","4226626","4943768838","Kortenaken"
"ONHOLD","ONHOLD","Tisselt; Jozef de Blockstraat, naast huisnr 52 straatje in, over brugje en zandpad in","Birrebeek","ztc4nmfl",NA,"YES","I_2830_1","bij voorkeur tussen 20/07 - 01/09",NA,"VMM_Mtp","Lotisch",NA,"Antwerpen","Willebroek","2830","2","3106",NA,"Polder Vliet en Zielbeek","03/8892337","poldervliet.en.zielbeek@edpnet.be","4.3538702","51.0386956","164","844","172","12040","Willebroek","1976-01-23","1975123003","310392","2736618675","Willebroek"
"ONHOLD","ONHOLD",NA,"Grootbroekloop","ztc4nmfl",NA,"YES","I_2830_2","bij voorkeur tussen 20/07 - 01/09",NA,NA,"Lotisch",NA,"Antwerpen","Willebroek","2830","2","0",NA,"Polder Willebroek","03/8996317","polderwillebroek@vvpw.be","4.3922546","51.0576496","164","844","172","12040","Willebroek","1976-01-23","1975123003","310392","2736618675","Willebroek"
"ONHOLD","ONHOLD","Het Broek, Blaasveld",NA,"mdm4oge4",NA,"YES","I_2830_3",NA,NA,"EcoWater","Lentisch",NA,"Antwerpen","Willebroek","2830",NA,NA,NA,"Heyens Veerle",NA,"recreatie.ant.anb@vlaanderen.be","4.3844079","51.0590381","164","844","172","12040","Willebroek","1976-01-23","1975123003","310392","2736618675","Willebroek"
"ONHOLD","ONHOLD","Blaasveld, Broekweg, thv. restaurant Fonteyntje brug tss 2 vijvers, rechtervijver","Putten van Lacourt","mdm4oge4",NA,"YES","I_2830_4",NA,NA,"ANB_Mtp","Lentisch",NA,"Antwerpen","Willebroek","2830",NA,NA,NA,"Heyens Veerle",NA,"recreatie.ant.anb@vlaanderen.be","4.3933008","51.0544065","164","844","172","12040","Willebroek","1976-01-23","1975123003","310392","2736618675","Willebroek"
"ONHOLD","ONHOLD","Hazewinkel","Hazewinkel watersportbaan","mdm4oge4",NA,"YES","I_2830_5",NA,NA,"Scheers","Lentisch",NA,"Antwerpen","Willebroek","2830",NA,NA,NA,NA,NA,NA,"4.3899316","51.0656574","164","844","172","12040","Willebroek","1976-01-23","1975123003","310392","2736618675","Willebroek"
"ONHOLD","ONHOLD",NA,"Zwarte Beek","mdm4oge4",NA,"YES","I_2830_6",NA,NA,NA,NA,NA,"Antwerpen","Willebroek","2830","NA","NA",NA,NA,NA,NA,"4.380693","51.071125","164","844","172","12040","Willebroek","1976-01-23","1975123003","310392","2736618675","Willebroek"
"TRUE","TRUE",NA,NA,"mdm4oge4",NA,"NO","V_2830_7",NA,NA,NA,NA,NA,"Antwerpen","Willebroek","2830",NA,NA,NA,NA,NA,NA,"4.37448729592871","51.07576420246","164","844","172","12040","Willebroek","1976-01-23","1975123003","310392","2736618675","Willebroek"
"FALSE","FALSE","Jesseren, Broekstraat, onverharde weg tussen huisnr. 18-20, 300 m tot einde voetbalveld, 100 m tot Mombeek, via brugje,  50 m opw. tot aan overbrugging","Mombeek",NA,NA,"YES","I_3840_1",NA,NA,"VMM_Mtp","Lotisch",NA,"Limburg","Borgloon","3840","2","7159",NA,"Limburg",NA,"christel.bouchet@limburg.be","5.40331689994255","50.8071886788038","166","846","50","73009","Borgloon","1982-07-17","1982001074","4605579","5132233887","Borgloon"
"FALSE","FALSE","Jesseren, Jesserenstr,opw weg en LP, aan grensbord Jesseren-Borgloon","Sint-Annabeek",NA,NA,"YES","I_3840_2",NA,NA,"VMM_Mtp","Lotisch",NA,"Limburg","Borgloon","3840","2","7526",NA,"Limburg",NA,"christel.bouchet@limburg.be","5.37748819644534","50.8115765982484","166","846","50","73009","Borgloon","1982-07-17","1982001074","4605579","5132233887","Borgloon"
"FALSE","FALSE","Broekom, zijweg Sassenbroekstr, in 2de bocht thv huis nr 7, achteraan privé-oprit, na samenvloeiing","Sassenbroekbeek",NA,NA,"YES","I_3840_3",NA,NA,"VMM_Mtp","Lotisch",NA,"Limburg","Borgloon","3840","2","7768",NA,"Limburg",NA,"christel.bouchet@limburg.be","5.34048498119169","50.7781484921849","166","846","50","73009","Borgloon","1982-07-17","1982001074","4605579","5132233887","Borgloon"
"ONHOLD","ONHOLD","Gors-Opleeuw; einde mf-traject 5m afw brug aan mp 451200","Mombeek","mdcxmmmy",NA,"YES","I_3840_4",NA,NA,"VMM_Mtp","Lotisch",NA,"Limburg","Borgloon","3840","2","7159",NA,"Limburg",NA,"christel.bouchet@limburg.be","5.4036727","50.8259306","166","846","50","73009","Borgloon","1982-07-17","1982001074","4605579","5132233887","Borgloon"
"FALSE","FALSE","Jesseren; Broekstraat; onverharde weg langs voetbalvelden;einde traject aan hoek laatste voetbalveld","Mombeek",NA,NA,"YES","I_3840_5",NA,NA,"VMM_Mtp","Lotisch",NA,"Limburg","Borgloon","3840","2","7159",NA,"Limburg",NA,"christel.bouchet@limburg.be","5.40320702593181","50.8079987927003","166","846","50","73009","Borgloon","1982-07-17","1982001074","4605579","5132233887","Borgloon"
"TRUE","TRUE","Eeklose Watergang","Eeklose watergang","mwyxzjc2","TBD","YES","I_9900_1",NA,NA,NA,NA,NA,"Oost-Vlaanderen","Eeklo","9900","NA","NA",NA,NA,NA,NA,"3.5388169","51.2160525","169","849","109","43005","Eeklo","1982-12-29","1982001920","2559369","304493745","Eeklo"
"TRUE","TRUE",NA,"Eeklose Watergang","owu3yjdl","TBD","YES","I_9900_2",NA,NA,NA,NA,NA,"Oost-Vlaanderen","Eeklo","9900","NA","NA",NA,NA,NA,NA,"3.586339","51.209412","169","849","109","43005","Eeklo","1982-12-29","1982001920","2559369","304493745","Eeklo"
"FALSE","FALSE","Peulis, Mechelbaan (N15), doodlopend zijwegje, inrit huis nr 664, 3 m opw brugje+lozing","Waversebeek",NA,NA,"YES","I_2580_1","bij voorkeur tussen 20/07 - 01/09",NA,"VMM_Mtp","Lotisch",NA,"Antwerpen","Putte","2580","2","6702",NA,"Antwerpen",NA,"hans.vanloy@provincieantwerpen.be","4.59070551799696","51.0392320972805","176","852","171","12029","Putte","1976-01-23","1975123003","40300","3515873126","Putte"
"FALSE","FALSE","33/3-4;Guighoven; Kasteelstraat; einde traject afw brug; 20m afw verval","Mombeek",NA,NA,"YES","I_3724_1",NA,NA,"VMM_Mtp","Lotisch",NA,"Limburg","Kortessem","3724","2","7159",NA,"Limburg",NA,"christel.bouchet@limburg.be","5.41160845140768","50.8387705295062","181","854","45","73040","Kortessem","1982-07-17","1982001074","3317968","3398700899","Kortessem"
"ONHOLD","ONHOLD","Lampernisse, Zadelstraat","Oostkerkevaart","mwiymta2",NA,"YES","I_8600_1",NA,NA,"VMM_Mtp","Lotisch",NA,"West-Vlaanderen","Diksmuide","8600","2","1285",NA,"Westkustpolder","058/314653","info@westkustpolder.be","2.7627767","51.0339668","185","856","153","32003","Diksmuide","1976-01-23","1975123003","6380216","15073875943","Diksmuide"
"FALSE","FALSE","Esen, Vladslostraat, afw","Handzamevaart",NA,NA,"YES","I_8600_2",NA,NA,"VMM_Mtp","Lotisch",NA,"West-Vlaanderen","Diksmuide","8600","1","1208",NA,"VMM",NA,"d.slootmaekers@vmm.be","2.90772740143193","51.0365100640425","185","856","153","32003","Diksmuide","1976-01-23","1975123003","6380216","15073875943","Diksmuide"
"TRUE","TRUE","Vladslo, Einsdijkstraat, br. Eindsdijk-Esenbroek","Handzamevaart","mgeyodcw","TBD","YES","I_8600_3",NA,NA,"VMM_Mtp","Lotisch",NA,"West-Vlaanderen","Diksmuide","8600","1","1208",NA,"VMM",NA,"d.slootmaekers@vmm.be","2.9266385","51.0345673","185","856","153","32003","Diksmuide","1976-01-23","1975123003","6380216","15073875943","Diksmuide"
"FALSE","FALSE","Woumen, Noordbroekstraat, Rillebroek, afw","Stenensluisvaart",NA,NA,"YES","I_8600_4",NA,NA,"VMM_Mtp","Lotisch",NA,"West-Vlaanderen","Diksmuide","8600","1","1379",NA,"VMM",NA,"d.slootmaekers@vmm.be","2.83668458193158","50.9946806747062","185","856","153","32003","Diksmuide","1976-01-23","1975123003","6380216","15073875943","Diksmuide"
"FALSE","FALSE","Woumen, Rapestraat","Stenensluisvaart",NA,"TBD","YES","I_8600_5",NA,NA,"VMM_Mtp","Lotisch",NA,"West-Vlaanderen","Diksmuide","8600","1","1379",NA,"VMM",NA,"d.slootmaekers@vmm.be","2.82926659629374","51.0006079023151","185","856","153","32003","Diksmuide","1976-01-23","1975123003","6380216","15073875943","Diksmuide"
"TRUE","TRUE","Woumen, Noordbroekstraat, Rillebroek","Stenensluisvaart","nwm0ndcy","TBD","YES","I_8600_6",NA,NA,"VMM_Mtp","Lotisch",NA,"West-Vlaanderen","Diksmuide","8600","1","1379",NA,"VMM",NA,"d.slootmaekers@vmm.be","2.8351357","50.9949932","185","856","153","32003","Diksmuide","1976-01-23","1975123003","6380216","15073875943","Diksmuide"
"TRUE","TRUE","Woumen, Noordbroekstraat, Rillebroek","Noordkantvaart","nwm0ndcy","TBD","YES","I_8600_7",NA,NA,"VMM_Mtp","Lotisch",NA,"West-Vlaanderen","Diksmuide","8600","1","2083",NA,"VMM",NA,"d.slootmaekers@vmm.be","2.8462363","51.0004986","185","856","153","32003","Diksmuide","1976-01-23","1975123003","6380216","15073875943","Diksmuide"
"TRUE","TRUE",NA,"Ijzer","nwm0ndcy","TBD","YES","I_8600_8",NA,NA,NA,"Lotisch",NA,"West-Vlaanderen","Diksmuide","8600",NA,NA,NA,NA,NA,NA,"2.8136319","50.9882039","185","856","153","32003","Diksmuide","1976-01-23","1975123003","6380216","15073875943","Diksmuide"
"FALSE","FALSE",NA,NA,"mwzkzmy1","08/07/2024","YES","I_8600_9",NA,NA,NA,"Lotisch",NA,"West-Vlaanderen","Diksmuide","8600",NA,NA,NA,NA,NA,NA,"2.8366285962997","51.0763340022947","185","856","153","32003","Diksmuide","1976-01-23","1975123003","6380216","15073875943","Diksmuide"
"ONHOLD","ONHOLD",NA,NA,"zgu1njg3",NA,"YES","I_8600_10",NA,NA,NA,"Lotisch",NA,"West-Vlaanderen","Diksmuide","8600",NA,NA,NA,NA,NA,NA,"2.8139829","51.117683","185","856","153","32003","Diksmuide","1976-01-23","1975123003","6380216","15073875943","Diksmuide"
"FALSE","FALSE","Woumen, Kasteelvijver","De Blankaart",NA,NA,"YES","I_8600_11",NA,NA,"ANB_Mtp","Lentisch",NA,"West-Vlaanderen","Diksmuide","8600",NA,NA,NA,"Dewulf Evy",NA,"recreatie.wvl.anb@vlaanderen.be","2.8674020014049","50.9833439789916","185","856","153","32003","Diksmuide","1976-01-23","1975123003","6380216","15073875943","Diksmuide"
"TRUE","TRUE","Diksmuide",NA,"mgeyodcw","TBD","YES","I_8600_12",NA,NA,"Scheers","Lentisch",NA,"West-Vlaanderen","Diksmuide","8600",NA,NA,NA,NA,NA,NA,"2.8680722","51.0347191","185","856","153","32003","Diksmuide","1976-01-23","1975123003","6380216","15073875943","Diksmuide"
"FALSE","FALSE",NA,"Put van Nieuwkapelle",NA,NA,"YES","I_8600_13","niet nuttig",NA,"Scheers","Lentisch",NA,"West-Vlaanderen","Diksmuide","8600",NA,NA,NA,NA,NA,NA,"2.8016198","50.991776","185","856","153","32003","Diksmuide","1976-01-23","1975123003","6380216","15073875943","Diksmuide"
"TRUE","TRUE",NA,"mgeyodcw",NA,"TBD","YES","I_8600_14",NA,NA,NA,NA,NA,"West-Vlaanderen","Diksmuide","8600","NA","NA",NA,NA,NA,NA,"2.8734323","51.0566341","185","856","153","32003","Diksmuide","1976-01-23","1975123003","6380216","15073875943","Diksmuide"
"FALSE","FALSE",NA,"Stjacobsleed","nznmytqy",NA,"YES","I_8600_15",NA,NA,NA,NA,NA,"West-Vlaanderen","Diksmuide","8600","NA","NA",NA,NA,NA,NA,"2.82446239629753","51.0266808023073","185","856","153","32003","Diksmuide","1976-01-23","1975123003","6380216","15073875943","Diksmuide"
"FALSE","FALSE",NA,"Grote Beverdijkvaart","zmu2zji1","09/24","YES","I_8600_16",NA,NA,NA,NA,NA,"West-Vlaanderen","Diksmuide","8600","NA","NA",NA,NA,NA,NA,"2.80638899630718","51.0797500022906","185","856","153","32003","Diksmuide","1976-01-23","1975123003","6380216","15073875943","Diksmuide"
"FALSE","FALSE",NA,"Oude A-vaart","zmu2zji1","09/24","YES","I_8600_17",NA,NA,NA,NA,NA,"West-Vlaanderen","Diksmuide","8600",NA,NA,NA,NA,NA,NA,"2.7697819963152","51.0738060022884","185","856","153","32003","Diksmuide","1976-01-23","1975123003","6380216","15073875943","Diksmuide"
"FALSE","FALSE","Moregem + Ooike,Pareel,Pareelstraat,afw weg","Volkaartsbeek",NA,NA,"YES","I_9790_1",NA,NA,"VMM_Mtp","Lotisch",NA,"Oost-Vlaanderen","Wortegem-Petegem","9790","2","5528",NA,"Oost-Vlaanderen",NA,"waterbeleid@oost-vlaanderen.be","3.54595582739233","50.8507088738667","193","861","266","45061","Wortegem-Petegem","1976-01-23","1975123003","4107106","4247251806","Wortegem-Petegem"
"FALSE","FALSE","Oude Schelde Elsegem","Oude Schelde Wortegem-Petegem","zgrhnjvm",NA,"YES","I_9790_2",NA,NA,"EcoWater","Lentisch",NA,"Oost-Vlaanderen","Wortegem-Petegem","9790",NA,NA,NA,"Coppens Xavier",NA,"recreatie.ovl.anb@vlaanderen.be","3.54966449610348","50.823190102442","193","861","266","45061","Wortegem-Petegem","1976-01-23","1975123003","4107106","4247251806","Wortegem-Petegem"
"ONHOLD","ONHOLD","Elsegem, Scheldestraat,Het Anker","Oude Schelde Wortegem-Petegem","mzbiowix",NA,"YES","I_9790_3",NA,NA,"ANB_Mtp","Lentisch",NA,"Oost-Vlaanderen","Wortegem-Petegem","9790","0",NA,NA,"Coppens Xavier",NA,"recreatie.ovl.anb@vlaanderen.be","3.5575902","50.8217214","193","861","266","45061","Wortegem-Petegem","1976-01-23","1975123003","4107106","4247251806","Wortegem-Petegem"
"FALSE","FALSE","Budingen, Leeuwerstr (betonnen fietspad), opw brug","Kleine Gete",NA,NA,"YES","I_3440_1",NA,NA,"VMM_Mtp","Lotisch",NA,"Vlaams-Brabant","Zoutleeuw","3440","1","7161",NA,"VMM",NA,"d.slootmaekers@vmm.be","5.10886677875896","50.855098259255","197","862","46","24130","Zoutleeuw","1982-12-29","1982001920","4558438","4684508475","Zoutleeuw"
"FALSE","FALSE","Budingen,aarden zijweg Molenstr thv hoek Steengrachtstr, opw brug","Grote Gete",NA,NA,"YES","I_3440_2",NA,NA,"VMM_Mtp","Lotisch",NA,"Vlaams-Brabant","Zoutleeuw","3440","1","7153",NA,"VMM",NA,"d.slootmaekers@vmm.be","5.09265171255261","50.8544533798014","197","862","46","24130","Zoutleeuw","1982-12-29","1982001920","4558438","4684508475","Zoutleeuw"
"ONHOLD","ONHOLD","Zoutleeuw, Koepoortstr, Molenbeek, opw brug","Dormaalbeek","ymi3mgez",NA,"YES","I_3440_3",NA,NA,"VMM_Mtp","Lotisch",NA,"Vlaams-Brabant","Zoutleeuw","3440","1","7160",NA,"VMM",NA,"d.slootmaekers@vmm.be","5.0962155","50.8250521","197","862","46","24130","Zoutleeuw","1982-12-29","1982001920","4558438","4684508475","Zoutleeuw"
"TRUE","TRUE","Budingen, Terweidenstr, afw limnigraaf en brug","Gete","ngq0zmji","TBD","YES","I_3440_4",NA,NA,"VMM_Mtp","Lotisch",NA,"Vlaams-Brabant","Zoutleeuw","3440","1","7162",NA,"VMM",NA,"d.slootmaekers@vmm.be","5.1072447","50.8639366","197","862","46","24130","Zoutleeuw","1982-12-29","1982001920","4558438","4684508475","Zoutleeuw"
"TRUE","TRUE","aan 430000, opw oude stenen brugje","Kleine Gete","nwi2m2u2","11/07/24","YES","I_3440_5",NA,NA,"VMM_Mtp","Lotisch",NA,"Vlaams-Brabant","Zoutleeuw","3440","2","7161",NA,"Vlaams-Brabant",NA,"ingrid.beuls@vlaamsbrabant.be","5.11138849572072","50.8466138026109","197","862","46","24130","Zoutleeuw","1982-12-29","1982001920","4558438","4684508475","Zoutleeuw"
"TRUE","TRUE","Leeuwerweg, thv kruispunt met landweg, vanaf 2de betonnen brugje","Vloedgracht","nwi2m2u2","11/07/24","YES","I_3440_6",NA,NA,"VMM_Mtp","Lotisch",NA,"Vlaams-Brabant","Zoutleeuw","3440","1","7957",NA,"VMM",NA,"d.slootmaekers@vmm.be","5.10147339572261","50.8409316026114","197","862","46","24130","Zoutleeuw","1982-12-29","1982001920","4558438","4684508475","Zoutleeuw"
"TRUE","TRUE","Zoutleeuw, Koepoortstr, begin traj opw mpl 443000","Dormaalbeek","ymi3mgez","TBD","YES","I_3440_7",NA,NA,"VMM_Mtp","Lotisch",NA,"Vlaams-Brabant","Zoutleeuw","3440","1","7160",NA,"VMM",NA,"d.slootmaekers@vmm.be","5.0962155","50.8250521","197","862","46","24130","Zoutleeuw","1982-12-29","1982001920","4558438","4684508475","Zoutleeuw"
"TRUE","TRUE","vijver het Vinne, Zoutleeuw, thv zuidwestelijke punt, via knuppelpad, links in open water, thv dode boom","Vinne","nwi2m2u2","TBD","YES","I_3440_8",NA,NA,"ANB_Mtp","Lentisch",NA,"Vlaams-Brabant","Zoutleeuw","3440",NA,NA,NA,NA,NA,NA,"5.1189194","50.8353643","197","862","46","24130","Zoutleeuw","1982-12-29","1982001920","4558438","4684508475","Zoutleeuw"
"TRUE","TRUE",NA,"Watering De Kleine Gete","nwi2m2u2","TBD","NO","V_3440_9","waterpeil half juli te laag",NA,NA,NA,NA,"Vlaams-Brabant","Zoutleeuw","3440","NA","NA",NA,NA,NA,NA,"5.1213607","50.8389004","197","862","46","24130","Zoutleeuw","1982-12-29","1982001920","4558438","4684508475","Zoutleeuw"
"ONHOLD","ONHOLD","Alken, Meerdegatstr, tss kruising met Expressweg Sint-Truiden en Jardinstr, opw weg","Kleine Herk","mdcxmmmy",NA,"YES","I_3570_1",NA,NA,"VMM_Mtp","Lotisch",NA,"Limburg","Alken","3570","1","7812",NA,"VMM",NA,"d.slootmaekers@vmm.be","5.3075097","50.8886293","203","866","42","73001","Alken","1982-07-17","1982001074","2771288","2823549591","Alken"
"ONHOLD","ONHOLD","Steenbruggestraat","Maalbeek","ymvlzgji",NA,"YES","I_8570_1",NA,NA,"VMM_Mtp","Lotisch",NA,"West-Vlaanderen","Anzegem","8570","2","4851",NA,"West-Vlaanderen",NA,NA,"3.4425441","50.858461","219","876","275","34002","Anzegem","1976-01-23","1975123003","35541","4235412341","Anzegem"
"TRUE","TRUE","Houtvenne, Linieweg, afw brugje","Steenkensbeek","yjbjnzi1","TBD","YES","I_2235_1","bij voorkeur tussen 20/07 - 01/09",NA,"VMM_Mtp","Lotisch",NA,"Antwerpen","Hulshout","2235","2","8518",NA,"Antwerpen",NA,"hans.vanloy@provincieantwerpen.be","4.80233249582118","51.0619956025121","231","884","170","13016","Hulshout","1982-12-29","1982001920","3153509","1737892974","Hulshout"
"FALSE","FALSE","Hulshout; Linieweg; afw brugje mtp 324300","Steenkensbeek",NA,NA,"YES","I_2235_2","bij voorkeur tussen 20/07 - 01/09",NA,"VMM_Mtp","Lotisch",NA,"Antwerpen","Hulshout","2235","2","8518",NA,"Antwerpen",NA,"hans.vanloy@provincieantwerpen.be","4.80142463080853","51.062547238922","231","884","170","13016","Hulshout","1982-12-29","1982001920","3153509","1737892974","Hulshout"
"TRUE","TRUE",NA,"Grote Nete","yjbjnzi1","TBD","NO","V_2235_3",NA,NA,NA,NA,NA,"Antwerpen","Hulshout","2235","NA","NA",NA,NA,NA,NA,"4.78664729582507","51.0618265025103","231","884","170","13016","Hulshout","1982-12-29","1982001920","3153509","1737892974","Hulshout"
"ONHOLD","ONHOLD","suggestie I Beuls VL Brabant","Herseltseloop","zje5zwzm","TBD","NO","V_3130_1",NA,NA,NA,NA,NA,"Vlaams-Brabant","Begijnendijk","3130","NA","NA",NA,NA,NA,NA,"4.8006547","51.0236576","247","894","188","24007","Begijnendijk","1976-01-23","1975123003","2539972","1765541661","Begijnendijk"
"FALSE","FALSE","Geetbets, Kasteellaan, opw brug","Gete",NA,NA,"YES","I_3450_1",NA,NA,"VMM_Mtp","Lotisch",NA,"Vlaams-Brabant","Geetbets","3450","9","7162",NA,NA,NA,NA,"5.12765979027665","50.9000983923358","249","895","41","24028","Geetbets","1976-01-23","1975123003","3210076","3551767078","Geetbets"
"FALSE","FALSE","Grazen, Galgestr, opw brug","Melsterbeek",NA,NA,"YES","I_3454_1",NA,NA,"VMM_Mtp","Lotisch",NA,"Vlaams-Brabant","Geetbets","3454","1","7154",NA,"VMM",NA,"d.slootmaekers@vmm.be","5.14808505844342","50.8605256879916","249","895","41","24028","Geetbets","1976-01-23","1975123003","3210076","3551767078","Geetbets"
"FALSE","FALSE","Geetbets, Kasteellaan, 20m afw brug en 428800","Gete",NA,NA,"YES","I_3450_2",NA,NA,"VMM_Mtp","Lotisch",NA,"Vlaams-Brabant","Geetbets","3450","1","7162",NA,"VMM",NA,"d.slootmaekers@vmm.be","5.12841467781494","50.9010644094539","249","895","41","24028","Geetbets","1976-01-23","1975123003","3210076","3551767078","Geetbets"
"TRUE","TRUE","Geetbets, Dorpsstr, afw mpl 429000","Gete","ngq0zmji","TBD","YES","I_3450_3",NA,NA,"VMM_Mtp","Lotisch",NA,"Vlaams-Brabant","Geetbets","3450","1","7162",NA,"VMM",NA,"d.slootmaekers@vmm.be","5.1201843","50.8878124","249","895","41","24028","Geetbets","1976-01-23","1975123003","3210076","3551767078","Geetbets"
"FALSE","FALSE","Geetbets, landweg in verlengde Brugkensweg, in wei 90° bocht links tot einde populierenrij, dan 90° bocht rechts tot aan de Gete, traject 50m opw einde wei","Gete",NA,NA,"YES","I_3450_4",NA,NA,"VMM_Mtp","Lotisch",NA,"Vlaams-Brabant","Geetbets","3450","1","7162",NA,"VMM",NA,"d.slootmaekers@vmm.be","5.11380088270032","50.8805264236292","249","895","41","24028","Geetbets","1976-01-23","1975123003","3210076","3551767078","Geetbets"
"FALSE","FALSE","33/1-2;Geetbets; einde traject op 10m afw brug aan MP 434000","Melsterbeek",NA,NA,"YES","I_3450_5",NA,NA,"VMM_Mtp","Lotisch",NA,"Vlaams-Brabant","Geetbets","3450","1","7154",NA,"VMM",NA,"d.slootmaekers@vmm.be","5.13327460740464","50.900061933836","249","895","41","24028","Geetbets","1976-01-23","1975123003","3210076","3551767078","Geetbets"
"FALSE","FALSE","33/1-2;Runkelen.begin traject aan 1ste bocht opw MP 435000","Melsterbeek",NA,NA,"YES","I_3454_2",NA,NA,"VMM_Mtp","Lotisch",NA,"Vlaams-Brabant","Geetbets","3454","1","7154",NA,"VMM",NA,"d.slootmaekers@vmm.be","5.1485804","50.8604145","249","895","41","24028","Geetbets","1976-01-23","1975123003","3210076","3551767078","Geetbets"
"TRUE","TRUE","Ramsel; Ramselsestwg (zijstraat), opw brug","Raamdonksebeek","mtqwzgrl","TBD","YES","I_2230_1","bij voorkeur tussen 20/07 - 01/09",NA,"VMM_Mtp","Lotisch",NA,"Antwerpen","Herselt","2230","2","8657",NA,"Antwerpen",NA,"hans.vanloy@provincieantwerpen.be","4.8490454","51.0393323","253","897","168","13013","Herselt","1976-01-23","1975123003","4647289","5237275447","Herselt"
"ONHOLD","ONHOLD",NA,"Herseltseloop","zje5zwzm",NA,"YES","I_2230_2",NA,NA,NA,NA,NA,"Antwerpen","Herselt","2230","NA","NA",NA,NA,NA,NA,"4.902965","51.027688","253","897","168","13013","Herselt","1976-01-23","1975123003","4647289","5237275447","Herselt"
"ONHOLD","ONHOLD","Oostvleteren, Stavelestraat, Evershamhoeve","Poperingevaart","ndk3mty3",NA,"YES","I_8640_1",NA,NA,"VMM_Mtp","Lotisch",NA,"West-Vlaanderen","Vleteren","8640","1","1203",NA,"VMM",NA,"d.slootmaekers@vmm.be","2.716387","50.947319","259","901","225","33041","Vleteren","1976-01-23","1975123003","3727193","385760301","Vleteren"
"FALSE","FALSE","Oostvleteren, Kruisboomstraat, Eikhoek","Poperingevaart",NA,NA,"YES","I_8640_2",NA,NA,"VMM_Mtp","Lotisch",NA,"West-Vlaanderen","Vleteren","8640","1","1203",NA,"VMM",NA,"d.slootmaekers@vmm.be","2.74073344592255","50.9133151776036","259","901","225","33041","Vleteren","1976-01-23","1975123003","3727193","385760301","Vleteren"
"FALSE","FALSE","Meeuwen, Peerderbaan, aan grensbord Meeuwen, OPW brug+LZP","Gielisbeek",NA,NA,"YES","I_3990_1",NA,NA,"VMM_Mtp","Lotisch",NA,"Limburg","Peer","3990","2","9663",NA,"Limburg",NA,"christel.bouchet@limburg.be","5.49461689089719","51.1156463917876","279","913","13","72030","Peer","1982-07-17","1982001074","4720193","8723599568","Peer"
"TRUE","TRUE","Wauberg, Meeuwerbaan (N719), grensbord Peer/Meeuwen, opw weg","Gielisbeek","owvlmtzj","TBD","YES","I_3990_2",NA,NA,"VMM_Mtp","Lotisch",NA,"Limburg","Peer","3990","2","9663",NA,"Limburg",NA,"christel.bouchet@limburg.be","5.4832172","51.0898192","279","913","13","72030","Peer","1982-07-17","1982001074","4720193","8723599568","Peer"
"FALSE","FALSE","Wijchmaal, onverhard einde Elsevaart, opw. brugje","Bollisenbeek",NA,NA,"YES","I_3990_3",NA,NA,"VMM_Mtp","Lotisch",NA,"Limburg","Peer","3990","2","9702",NA,"Limburg",NA,"christel.bouchet@limburg.be","5.4037666387001","51.0989402570741","279","913","13","72030","Peer","1982-07-17","1982001074","4720193","8723599568","Peer"
"FALSE","FALSE","Bovenstestr, opw weg en zijgrachtjes","Kleinbeek",NA,NA,"YES","I_3990_4","tussen prikkeldraad in een koeienweide",NA,"VMM_Mtp","Lotisch",NA,"Limburg","Peer","3990","2","9633",NA,"Limburg",NA,"christel.bouchet@limburg.be","5.4329174","51.1269891","279","913","13","72030","Peer","1982-07-17","1982001074","4720193","8723599568","Peer"
"TRUE","TRUE","Einde traject 10m afw brug aan MP 99500","Bollisenbeek","mwnhmtq1","TBD","YES","I_3990_5",NA,NA,"VMM_Mtp","Lotisch",NA,"Limburg","Peer","3990","2","9702",NA,"Limburg",NA,"christel.bouchet@limburg.be","5.39167379567882","51.1165486025638","279","913","13","72030","Peer","1982-07-17","1982001074","4720193","8723599568","Peer"
"FALSE","FALSE","Wijchmaal, Elsevaart, einde traject 10m afw brug aan MP 99550","Bollisenbeek",NA,NA,"YES","I_3990_6",NA,NA,"VMM_Mtp","Lotisch",NA,"Limburg","Peer","3990","2","9702",NA,"Limburg",NA,"christel.bouchet@limburg.be","5.40323281853485","51.099978756188","279","913","13","72030","Peer","1982-07-17","1982001074","4720193","8723599568","Peer"
"FALSE","FALSE","Runkelen:Binderveldseweg/Binderveld:Molenstr, opw brug","Melsterbeek",NA,NA,"YES","I_3850_1",NA,NA,"VMM_Mtp","Lotisch",NA,"Limburg","Nieuwerkerken","3850","1","7154",NA,"VMM",NA,"d.slootmaekers@vmm.be","5.15970089515061","50.8561147025226","282","916","43","71045","Nieuwerkerken","1982-07-17","1982001074","354999","2250981458","Nieuwerkerken"
"FALSE","FALSE","Vorsterweg,  afw brug","Grote Laak",NA,NA,"YES","I_3980_1",NA,NA,"VMM_Mtp","Lotisch",NA,"Limburg","Tessenderlo","3980","1","8503",NA,"VMM",NA,"d.slootmaekers@vmm.be","5.09423481904324","51.0819167324334","294","922","24","71057","Tessenderlo","1849-06-23",NA,"4735687","5164253454","Tessenderlo"
"TRUE","TRUE","Tessenderlo, zijstraat industrieweg, afw brug","Grotebeek","yzjkywm1","TBD","YES","I_3980_2",NA,NA,"VMM_Mtp","Lotisch",NA,"Limburg","Tessenderlo","3980","1","7751",NA,"VMM",NA,"d.slootmaekers@vmm.be","5.1209392","51.0442797","294","922","24","71057","Tessenderlo","1849-06-23",NA,"4735687","5164253454","Tessenderlo"
"FALSE","FALSE","Laakdal; Vorst; Lindestraat; beginnen 10m opw brugje","Grote Laak",NA,NA,"YES","I_3980_3",NA,NA,"VMM_Mtp","Lotisch",NA,"Limburg","Tessenderlo","3980","1","8503",NA,"VMM",NA,"d.slootmaekers@vmm.be","5.05879937070456","51.0790463909736","294","922","24","71057","Tessenderlo","1849-06-23",NA,"4735687","5164253454","Tessenderlo"
"TRUE","TRUE","Tessenderlo; Vorsterweg; mtp 326100 (130m afw brug)","Grote Laak","yzjkywm1","TBD","YES","I_3980_4",NA,NA,"VMM_Mtp","Lotisch",NA,"Limburg","Tessenderlo","3980","1","8503",NA,"VMM",NA,"d.slootmaekers@vmm.be","5.0939029","51.082602","294","922","24","71057","Tessenderlo","1849-06-23",NA,"4735687","5164253454","Tessenderlo"
"TRUE","TRUE","Ham; Bergstraat; 120m afw straat beginnen (op scheiding maïsveld/bos)","Grote Laak","yzjkywm1","TBD","YES","I_3980_5",NA,NA,"VMM_Mtp","Lotisch",NA,"Limburg","Tessenderlo","3980","1","8503",NA,"VMM",NA,"d.slootmaekers@vmm.be","5.1448458","51.0795984","294","922","24","71057","Tessenderlo","1849-06-23",NA,"4735687","5164253454","Tessenderlo"
"FALSE","FALSE","Meensel/Kapellen, aan  grensbord Kapellen / Glabbeek, Tiensebaan/Stationstr, langs weg, voor samenvloeiing met Dorpswaterloop","Begijnebeek",NA,NA,"YES","I_3381_1",NA,NA,"VMM_Mtp","Lotisch",NA,"Vlaams-Brabant","Glabbeek","3381","9","7163",NA,NA,NA,NA,"4.94511730517228","50.8947997025965","299","926","260","24137","Glabbeek","1976-01-23","1975123003","3012163","2699167975","Glabbeek"
"TRUE","TRUE","Hoeleden, Zuurbemdestw, 10m afw 425000","Velpe","ngq0zmji","TBD","YES","I_3471_1",NA,NA,"VMM_Mtp","Lotisch",NA,"Vlaams-Brabant","Glabbeek","3471","1","7155",NA,"VMM",NA,"d.slootmaekers@vmm.be","4.9827656","50.8704892","299","926","260","24137","Glabbeek","1976-01-23","1975123003","3012163","2699167975","Glabbeek"
"TRUE","TRUE",NA,NA,"zjm0zwm2","TBD","YES","I_8890_2",NA,NA,NA,NA,NA,"West-Vlaanderen","Moorslede","8890",NA,NA,NA,NA,NA,NA,"3.0910547","50.8534766","306","930","246","36012","Moorslede","1976-01-23","1975123003","3389135","3544784273","Moorslede"
"TRUE","TRUE",NA,"Oude Veurnevaart - Langeleed","njhknmu0","TBD","YES","I_8670_1",NA,NA,"VMM_Mtp","Lotisch",NA,"West-Vlaanderen","Koksijde","8670","2","1212",NA,"Westkustpolder","058/314653","info@westkustpolder.be","2.6847605","51.1038088","7","931","139","38014","Koksijde","1976-01-23","1975123003","3787729","503608041","Koksijde"
"TRUE","TRUE",NA,"Oude Veurnevaart - Langeleed","zwyymtqz","TBD","YES","I_8670_2",NA,NA,"VMM_Mtp","Lotisch",NA,"West-Vlaanderen","Koksijde","8670","2","1212",NA,"Westkustpolder","058/314653","info@westkustpolder.be","2.6725266","51.0887082","7","931","139","38014","Koksijde","1976-01-23","1975123003","3787729","503608041","Koksijde"
"FALSE","FALSE","Privé (SUNPARKS)",NA,NA,NA,"YES","I_8670_3",NA,NA,"Scheers","Lentisch",NA,"West-Vlaanderen","Koksijde","8670",NA,NA,NA,NA,NA,NA,"2.71124889584337","51.1299839921109","7","931","139","38014","Koksijde","1976-01-23","1975123003","3787729","503608041","Koksijde"
"FALSE","FALSE","Ramskapelle, Diksmuidse weg, Koolhofbrug","Slijkvaart",NA,NA,"YES","I_8620_1",NA,NA,"VMM_Mtp","Lotisch",NA,"West-Vlaanderen","Nieuwpoort","8620","1","1211",NA,"VMM",NA,"d.slootmaekers@vmm.be","2.75131598168558","51.1151875384783","101","933","127","38016","Nieuwpoort","1976-01-23","1975123003","36451","3328401861","Nieuwpoort"
"TRUE","TRUE","Ramskapelle, Violettestraat, Hve Rijkenhoek","Grote Beverdijkvaart","mjm4ndiy","TBD","YES","I_8620_2",NA,NA,"VMM_Mtp","Lotisch",NA,"West-Vlaanderen","Nieuwpoort","8620","1","1205",NA,"VMM",NA,"d.slootmaekers@vmm.be","2.771585","51.124462","101","933","127","38016","Nieuwpoort","1976-01-23","1975123003","36451","3328401861","Nieuwpoort"
"FALSE","FALSE","Ramskapelle, Koolhofstraat, Koolhofbrug","Slijkvaart",NA,NA,"YES","I_8620_3",NA,NA,"VMM_Mtp","Lotisch",NA,"West-Vlaanderen","Nieuwpoort","8620","1","1211",NA,"VMM",NA,"d.slootmaekers@vmm.be","2.74799162787546","51.1117793311603","101","933","127","38016","Nieuwpoort","1976-01-23","1975123003","36451","3328401861","Nieuwpoort"
"FALSE","FALSE","Kleine Beverdijkvaart","Kleine Beverdijkvaart","mwzkzmy1","15/07/2024","YES","I_8620_4",NA,NA,NA,"Lotisch",NA,"West-Vlaanderen","Diksmuide","8620","2","0",NA,"Westkustpolder","058/314653","info@westkustpolder.be","2.82006579630626","51.1024680022856","101","933","127","38016","Nieuwpoort","1976-01-23","1975123003","36451","3328401861","Nieuwpoort"
"TRUE","TRUE","Koolhofput in Nieuwpoort","Spaarbekken Koolhofvaart","mwu5ntqy",NA,"YES","I_8620_5",NA,NA,"EcoWater","Lentisch",NA,"West-Vlaanderen","Nieuwpoort","8620","NA","NA",NA,NA,NA,NA,"2.75641679632337","51.1233600022733","101","933","127","38016","Nieuwpoort","1976-01-23","1975123003","36451","3328401861","Nieuwpoort"
"TRUE","TRUE","connected to Yser",NA,"mjm4ndiy","TBD","YES","I_8620_6",NA,NA,"Scheers","Lentisch",NA,"West-Vlaanderen","Nieuwpoort","8620",NA,NA,NA,NA,NA,NA,"2.7890545","51.1307748","101","933","127","38016","Nieuwpoort","1976-01-23","1975123003","36451","3328401861","Nieuwpoort"
"FALSE","FALSE","recreation area","Spaarbekken Koolhofvaart",NA,NA,"YES","I_8620_7",NA,NA,"Scheers","Lentisch",NA,"West-Vlaanderen","Nieuwpoort","8620",NA,NA,NA,NA,NA,NA,"2.75593769638285","51.1197382921743","101","933","127","38016","Nieuwpoort","1976-01-23","1975123003","36451","3328401861","Nieuwpoort"
"FALSE","FALSE","Utsenaken, Melkweg, opw brug","Grote Gete",NA,NA,"YES","I_3300_1",NA,NA,"VMM_Mtp","Lotisch",NA,"Vlaams-Brabant","Tienen","3300","99","7153",NA,NA,NA,NA,"4.99071205337995","50.8204638234318","6","939","278","24107","Tienen","1976-01-23","1975123003","5295706","7277228799","Tienen"
"TRUE","TRUE","Oplinter, Oude Getestr, RO thv kruising/splitsing met zijweg","Grote Gete","ymi3mgez","TBD","YES","I_3300_2",NA,NA,"VMM_Mtp","Lotisch",NA,"Vlaams-Brabant","Tienen","3300","1","7153",NA,"VMM",NA,"d.slootmaekers@vmm.be","4.9729105","50.8101467","6","939","278","24107","Tienen","1976-01-23","1975123003","5295706","7277228799","Tienen"
"FALSE","FALSE","Tienen, Oude Getestraat, opw. brug naar RWZI","Grote Gete",NA,NA,"YES","I_3300_3",NA,NA,"VMM_Mtp","Lotisch",NA,"Vlaams-Brabant","Tienen","3300","1","7153",NA,"VMM",NA,"d.slootmaekers@vmm.be","4.96806819575234","50.8053890026064","6","939","278","24107","Tienen","1976-01-23","1975123003","5295706","7277228799","Tienen"
"FALSE","FALSE","Tienen, Ambachtenlaan, afw. brug","Grote Gete",NA,NA,"YES","I_3300_4",NA,NA,"VMM_Mtp","Lotisch",NA,"Vlaams-Brabant","Tienen","3300","1","7153",NA,"VMM",NA,"d.slootmaekers@vmm.be","4.96243991057287","50.805714362328","6","939","278","24107","Tienen","1976-01-23","1975123003","5295706","7277228799","Tienen"
"FALSE","FALSE","Tienen, St.-Helenavest, afw brug","Grote Gete",NA,NA,"YES","I_3300_5",NA,NA,"VMM_Mtp","Lotisch",NA,"Vlaams-Brabant","Tienen","3300","1","7153",NA,"VMM",NA,"d.slootmaekers@vmm.be","4.9356385299881","50.8020714963503","6","939","278","24107","Tienen","1976-01-23","1975123003","5295706","7277228799","Tienen"
"FALSE","FALSE","Tienen, Pastoorstr, opw weg","Grote Gete",NA,NA,"YES","I_3300_6",NA,NA,"VMM_Mtp","Lotisch",NA,"Vlaams-Brabant","Tienen","3300","1","7153",NA,"VMM",NA,"d.slootmaekers@vmm.be","4.91898830837892","50.7891246281461","6","939","278","24107","Tienen","1976-01-23","1975123003","5295706","7277228799","Tienen"
"FALSE","FALSE","Oplinter, Melkweg, 5m opw brug","Grote Gete",NA,NA,"YES","I_3300_7",NA,NA,"VMM_Mtp","Lotisch",NA,"Vlaams-Brabant","Tienen","3300","1","7153",NA,"VMM",NA,"d.slootmaekers@vmm.be","4.99060974239098","50.8202396195627","6","939","278","24107","Tienen","1976-01-23","1975123003","5295706","7277228799","Tienen"
"FALSE","FALSE","Oorbeek, Poastoorstr, 5m opw 441000","Grote Gete","ytfmywnh",NA,"YES","I_3300_8",NA,NA,"VMM_Mtp","Lotisch",NA,"Vlaams-Brabant","Tienen","3300","1","7153",NA,"VMM",NA,"d.slootmaekers@vmm.be","4.91878869576295","50.7890357026056","6","939","278","24107","Tienen","1976-01-23","1975123003","5295706","7277228799","Tienen"
"TRUE","TRUE","Tienen",NA,"nzyyotg1","TBD","YES","I_3300_9",NA,NA,"Scheers","Lentisch",NA,"Vlaams-Brabant","Tienen","3300",NA,NA,NA,NA,NA,NA,"4.9515788","50.8117904","6","939","278","24107","Tienen","1976-01-23","1975123003","5295706","7277228799","Tienen"
"FALSE","FALSE","Moelingen, Voerenstraat, opw brug","Berwijn",NA,NA,"YES","I_3790_1",NA,NA,"VMM_Mtp","Lotisch",NA,"Limburg","Voeren","3790","1","9536",NA,"VMM",NA,"d.slootmaekers@vmm.be","5.7114898","50.7560047","9","941","55","73109","Voeren","1976-01-23","1975123003","5372878","5060883845","Voeren"
"FALSE","FALSE","34/7-8; Voeren; Route De Mouland. in bocht met Drees; begin traject 100m afw bocht (10m vanaf brug)","Voer",NA,NA,"YES","I_3798_1",NA,NA,"VMM_Mtp","Lotisch",NA,"Limburg","Voeren","3798","1","9574",NA,"VMM",NA,"d.slootmaekers@vmm.be","5.7810042","50.7570158","9","941","55","73109","Voeren","1976-01-23","1975123003","5372878","5060883845","Voeren"
"FALSE","FALSE","34/7-8; Moelingen; begin traject 60m opw monding in Maas","Berwijn",NA,NA,"YES","I_3790_2",NA,NA,"VMM_Mtp","Lotisch",NA,"Limburg","Voeren","3790","1","9536",NA,"VMM",NA,"d.slootmaekers@vmm.be","5.68432679831621","50.755205610808","9","941","55","73109","Voeren","1976-01-23","1975123003","5372878","5060883845","Voeren"
"FALSE","FALSE","34/7-8; Moelingen; Aardeweg tussen Voerenstraat en Batticestraaat, via boomgaard; traject van klif (holle oever) tot dieper stuk","Berwijn",NA,NA,"YES","I_3790_3",NA,NA,"VMM_Mtp","Lotisch",NA,"Limburg","Voeren","3790","1","9536",NA,"Jacobs Karen",NA,"recreatie.lim.anb@vlaanderen.be","5.72281929667125","50.7540740594169","9","941","55","73109","Voeren","1976-01-23","1975123003","5372878","5060883845","Voeren"
"ONHOLD","ONHOLD",NA,"Dijle","n2rmyjaw",NA,"YES","I_3040_1",NA,NA,"VMM_Mtp","Lotisch",NA,"Vlaams-Brabant","Huldenberg","3040","1","6551",NA,"VMM",NA,"d.slootmaekers@vmm.be","4.6372424","50.7762847","12","943","290","24045","Huldenberg","1982-12-29","1982001920","4367889","3994604987","Huldenberg"
"ONHOLD","ONHOLD","Neerijse, zijweg Eygenstr op RO Ijse, afw voetgangersbrugje 40m voor monding in de Dijle","Ijse","mwmwodli",NA,"YES","I_3040_2",NA,NA,"VMM_Mtp","Lotisch",NA,"Vlaams-Brabant","Huldenberg","3040","1","6556",NA,"VMM",NA,"d.slootmaekers@vmm.be","4.6409312","50.8231844","12","943","290","24045","Huldenberg","1982-12-29","1982001920","4367889","3994604987","Huldenberg"
"FALSE","FALSE","Neerijse, Lindenhoflaan, opw weg (FC), afw weg (BBI)","Ijse",NA,NA,"YES","I_3040_3",NA,NA,"VMM_Mtp","Lotisch",NA,"Vlaams-Brabant","Huldenberg","3040","1","6556",NA,"VMM",NA,"d.slootmaekers@vmm.be","4.63400931349193","50.8163591476561","12","943","290","24045","Huldenberg","1982-12-29","1982001920","4367889","3994604987","Huldenberg"
"FALSE","FALSE","Neerijse, Kamstr, opw weg en overstort","Ijse",NA,NA,"YES","I_3040_4",NA,NA,"VMM_Mtp","Lotisch",NA,"Vlaams-Brabant","Huldenberg","3040","1","6556",NA,"VMM",NA,"d.slootmaekers@vmm.be","4.6217444527612","50.8128983539281","12","943","290","24045","Huldenberg","1982-12-29","1982001920","4367889","3994604987","Huldenberg"
"ONHOLD","ONHOLD","Loonbeek, Bertelsheide, afw brug","Ijse","mwmwodli",NA,"YES","I_3040_5",NA,NA,"VMM_Mtp","Lotisch",NA,"Vlaams-Brabant","Huldenberg","3040","1","6556",NA,"VMM",NA,"d.slootmaekers@vmm.be","4.613192","50.8081431","12","943","290","24045","Huldenberg","1982-12-29","1982001920","4367889","3994604987","Huldenberg"
"FALSE","FALSE","Huldenberg, Smeysberg, opw brug","Ijse",NA,NA,"YES","I_3040_6",NA,NA,"VMM_Mtp","Lotisch",NA,"Vlaams-Brabant","Huldenberg","3040","1","6556",NA,"VMM",NA,"d.slootmaekers@vmm.be","4.59274632633348","50.7900968218876","12","943","290","24045","Huldenberg","1982-12-29","1982001920","4367889","3994604987","Huldenberg"
"FALSE","FALSE","Sint-Agatha-Rode, Hoekstr, opw weg","Laan",NA,NA,"YES","I_3040_7",NA,NA,"VMM_Mtp","Lotisch",NA,"Vlaams-Brabant","Huldenberg","3040","1","6691",NA,"VMM",NA,"d.slootmaekers@vmm.be","4.63343071793043","50.7917737035342","12","943","290","24045","Huldenberg","1982-12-29","1982001920","4367889","3994604987","Huldenberg"
"FALSE","FALSE","Neerijse, Kamstr, 5m opw brug aan 4840000","Ijse",NA,NA,"YES","I_3040_8",NA,NA,"VMM_Mtp","Lotisch",NA,"Vlaams-Brabant","Huldenberg","3040","1","6556",NA,"VMM",NA,"d.slootmaekers@vmm.be","4.62130343080533","50.812683556184","12","943","290","24045","Huldenberg","1982-12-29","1982001920","4367889","3994604987","Huldenberg"
"ONHOLD","ONHOLD","Huldenberg, Smeysberg, afw 484300 en 5m afw overstorten","Ijse","n2rmyjaw",NA,"YES","I_3040_9",NA,NA,"VMM_Mtp","Lotisch",NA,"Vlaams-Brabant","Huldenberg","3040","1","6556",NA,"VMM",NA,"d.slootmaekers@vmm.be","4.5958303","50.7914124","12","943","290","24045","Huldenberg","1982-12-29","1982001920","4367889","3994604987","Huldenberg"
"FALSE","FALSE","Huldenberg, De Peuthystraat 4 (bord Trepolia), in kasteeldomein, 10 m opw. brugje","Ijse",NA,NA,"YES","I_3040_10",NA,NA,"VMM_Mtp","Lotisch",NA,"Vlaams-Brabant","Huldenberg","3040","1","6556",NA,"VMM",NA,"d.slootmaekers@vmm.be","4.57838739095309","50.7886581642597","12","943","290","24045","Huldenberg","1982-12-29","1982001920","4367889","3994604987","Huldenberg"
"ONHOLD","ONHOLD","Sint-Agatha-Rode, Potterstr, einde traj 10m afw brug en 488200","Laan","mwmwodli",NA,"YES","I_3040_11",NA,NA,"VMM_Mtp","Lotisch",NA,"Vlaams-Brabant","Huldenberg","3040","1","6691",NA,"VMM",NA,"d.slootmaekers@vmm.be","4.6300875","50.7873853","12","943","290","24045","Huldenberg","1982-12-29","1982001920","4367889","3994604987","Huldenberg"
"FALSE","FALSE","Private?",NA,NA,NA,"YES","I_3040_12",NA,NA,"Scheers","Lentisch",NA,"Vlaams-Brabant","Huldenberg","3040",NA,NA,NA,NA,NA,NA,"4.58180399436811","50.7881945924704","12","943","290","24045","Huldenberg","1982-12-29","1982001920","4367889","3994604987","Huldenberg"
"FALSE","FALSE","Reningelst, Vlamertingseweg zijweg, afw Reningelst","Kemmelbeek",NA,NA,"YES","I_8970_1",NA,NA,"VMM_Mtp","Lotisch",NA,"West-Vlaanderen","Poperinge","8970","2","1204",NA,"West-Vlaanderen",NA,NA,"2.77776441102046","50.8232239368031","14","944","238","33021","Poperinge","1976-01-23","1975123003","7424854","12037331235","Poperinge"
"TRUE","TRUE","Pezelhoekstraat, Reepje","Poperingevaart","m2jmywjk","TBD","YES","I_8970_2",NA,NA,"VMM_Mtp","Lotisch",NA,"West-Vlaanderen","Poperinge","8970","1","1203",NA,"VMM",NA,"d.slootmaekers@vmm.be","2.7446808","50.8662181","14","944","238","33021","Poperinge","1976-01-23","1975123003","7424854","12037331235","Poperinge"
"FALSE","FALSE","Ouderdomseweg","Hazelbeek",NA,NA,"YES","I_8970_3",NA,NA,"VMM_Mtp","Lotisch",NA,"West-Vlaanderen","Poperinge","8970","2","1997",NA,"West-Vlaanderen",NA,NA,"2.76033888341805","50.8371480727826","14","944","238","33021","Poperinge","1976-01-23","1975123003","7424854","12037331235","Poperinge"
"TRUE","TRUE","Vlamertinge","Kemmelbeek","njuwzjzm","TBD","YES","I_8970_4",NA,NA,"VMM_Mtp","Lotisch",NA,"West-Vlaanderen","Poperinge","8970","2","1204",NA,"West-Vlaanderen",NA,NA,"2.7883174","50.8310814","14","944","238","33021","Poperinge","1976-01-23","1975123003","7424854","12037331235","Poperinge"
"FALSE","FALSE","Switch Road","Poperingevaart",NA,NA,"YES","I_8970_5",NA,NA,"VMM_Mtp","Lotisch",NA,"West-Vlaanderen","Poperinge","8970","1","1203",NA,"VMM",NA,"d.slootmaekers@vmm.be","2.7322612039236","50.8597244583361","14","944","238","33021","Poperinge","1976-01-23","1975123003","7424854","12037331235","Poperinge"
"TRUE","TRUE",NA,"Poperingevaart","njuwzjzm","TBD","YES","I_8970_6",NA,NA,"VMM_Mtp","Lotisch",NA,"West-Vlaanderen","Poperinge","8970","2","1203",NA,"West-Vlaanderen",NA,NA,"2.7006916","50.832961","14","944","238","33021","Poperinge","1976-01-23","1975123003","7424854","12037331235","Poperinge"
"TRUE","TRUE",NA,"Heidebeek","njuwzjzm","TBD","YES","I_8972_1",NA,NA,"VMM_Mtp","Lotisch",NA,"West-Vlaanderen","Poperinge","8972","1","1217",NA,"VMM",NA,"d.slootmaekers@vmm.be","2.608243","50.8932498","14","944","238","33021","Poperinge","1976-01-23","1975123003","7424854","12037331235","Poperinge"
"TRUE","TRUE",NA,"Yser-IJzer","njuwzjzm","TBD","YES","I_8972_2",NA,NA,NA,"Lotisch",NA,"West-Vlaanderen","Poperinge","8972","0","0",NA,NA,NA,NA,"2.6073795","50.9116887","14","944","238","33021","Poperinge","1976-01-23","1975123003","7424854","12037331235","Poperinge"
"FALSE","FALSE","Tongeren, Hardelweg/Oude Blaarstraat, Natuurgebied ""De Kevie"", afw brug","Jeker",NA,NA,"YES","I_3700_1",NA,NA,"VMM_Mtp","Lotisch",NA,"Limburg","Tongeren","3700","1","9504",NA,"VMM",NA,"d.slootmaekers@vmm.be","5.4907471289989","50.7797622324309","15","945","52","73083","Tongeren","1982-07-17","1982001074","5556102","8781400004","Tongeren"
"FALSE","FALSE","Lauw, Brugstraat, opw brug","Jeker",NA,NA,"YES","I_3700_2",NA,NA,"VMM_Mtp","Lotisch",NA,"Limburg","Tongeren","3700","1","9504",NA,"VMM",NA,"d.slootmaekers@vmm.be","5.41144450442367","50.7386173999773","15","945","52","73083","Tongeren","1982-07-17","1982001074","5556102","8781400004","Tongeren"
"FALSE","FALSE","'s Herenelderen, Lindebornstr, afw weg en overstort","Demer",NA,NA,"YES","I_3700_3",NA,NA,"VMM_Mtp","Lotisch",NA,"Limburg","Tongeren","3700","2","7151",NA,"Limburg",NA,"christel.bouchet@limburg.be","5.49997312814668","50.8107811754617","15","945","52","73083","Tongeren","1982-07-17","1982001074","5556102","8781400004","Tongeren"
"FALSE","FALSE","Jesseren, Broekstraat, onverharde weg tussen huisnr. 18-20, 300 m tot einde voetbalveld, 100 m tot Mombeek, 100 m verder afw. bemonsteren.","Mombeek",NA,NA,"YES","I_3700_4",NA,NA,"VMM_Mtp","Lotisch",NA,"Limburg","Tongeren","3700","2","7159",NA,"Limburg",NA,"christel.bouchet@limburg.be","5.40357790686631","50.8087327350545","15","945","52","73083","Tongeren","1982-07-17","1982001074","5556102","8781400004","Tongeren"
"FALSE","FALSE","Sluizen, afw 144500","Jeker",NA,NA,"YES","I_3700_5",NA,NA,"VMM_Mtp","Lotisch",NA,"Limburg","Tongeren","3700","1","9504",NA,"VMM",NA,"d.slootmaekers@vmm.be","5.5266722183362","50.759803399191","15","945","52","73083","Tongeren","1982-07-17","1982001074","5556102","8781400004","Tongeren"
"FALSE","FALSE",NA,"Jeker",NA,NA,"YES","I_3700_6",NA,NA,"VMM_Mtp","Lotisch",NA,"Limburg","Tongeren","3700","1","9504",NA,"VMM",NA,"d.slootmaekers@vmm.be","5.40406150741722","50.7359768214239","15","945","52","73083","Tongeren","1982-07-17","1982001074","5556102","8781400004","Tongeren"
"FALSE","FALSE","Kolmont; opw Herkhofweg; begin mf-traject","Mombeek",NA,NA,"YES","I_3700_7",NA,NA,"VMM_Mtp","Lotisch",NA,"Limburg","Tongeren","3700","2","7159",NA,"Limburg",NA,"christel.bouchet@limburg.be","5.40928777223321","50.8013009404617","15","945","52","73083","Tongeren","1982-07-17","1982001074","5556102","8781400004","Tongeren"
"FALSE","FALSE","Tongeren",NA,NA,NA,"YES","I_3700_8",NA,NA,"Scheers","Lentisch",NA,"Limburg","Tongeren","3700",NA,NA,NA,NA,NA,NA,"5.44985179309542","50.7872171928375","15","945","52","73083","Tongeren","1982-07-17","1982001074","5556102","8781400004","Tongeren"
"FALSE","FALSE","Tongeren",NA,NA,NA,"YES","I_3700_9",NA,NA,"Scheers","Lentisch",NA,"Limburg","Tongeren","3700",NA,NA,NA,NA,NA,NA,"5.44620559319785","50.7869576932267","15","945","52","73083","Tongeren","1982-07-17","1982001074","5556102","8781400004","Tongeren"
"TRUE","TRUE","Linter-Drieslinter, Molenstr, aan 'Geensmolen', 5m opw brug","Grote Gete","ymi3mgez","TBD","YES","I_3350_1",NA,NA,"VMM_Mtp","Lotisch",NA,"Vlaams-Brabant","Linter","3350","1","7153",NA,"VMM",NA,"d.slootmaekers@vmm.be","5.0466102","50.8398595","21","947","49","24133","Linter","1976-01-23","1975123003","3928721","3687115191","Linter"
"FALSE","FALSE","Moerkerke, Moerkerkebrug","Hoge Watering",NA,NA,"YES","I_8340_1",NA,NA,"VMM_Mtp","Lotisch",NA,"West-Vlaanderen","Damme","8340","2","2129",NA,"Oostkustpolder","050/333271","waterbeheer@oostkustpolder.be","3.34660122411714","51.240441024708","29","949","83","31006","Damme","1982-12-29","1982001920","5125441","9036361608","Damme"
"FALSE","FALSE","Lapscheure, Natienlaan","Zevengemete",NA,NA,"YES","I_8340_2",NA,NA,"VMM_Mtp","Lotisch",NA,"West-Vlaanderen","Damme","8340","2","2306",NA,"Oostkustpolder","050/333271","waterbeheer@oostkustpolder.be","3.35029527477193","51.279161920602","29","949","83","31006","Damme","1982-12-29","1982001920","5125441","9036361608","Damme"
"FALSE","FALSE","Sijsele, Brieversweg, Kaleshoek","Kaleshoekbeek",NA,NA,"YES","I_8340_3",NA,NA,"VMM_Mtp","Lotisch",NA,"West-Vlaanderen","Damme","8340","2","2713",NA,"Oostkustpolder","050/333271","waterbeheer@oostkustpolder.be","3.36420333642617","51.2317014477126","29","949","83","31006","Damme","1982-12-29","1982001920","5125441","9036361608","Damme"
"FALSE","FALSE","Oostkerke, Sabtsweg","Zwinnevaart","mjcxzme1",NA,"YES","I_8340_4",NA,NA,"VMM_Mtp","Lotisch",NA,"West-Vlaanderen","Damme","8340","1","2230",NA,"VMM",NA,"d.slootmaekers@vmm.be","3.29039549621302","51.2830861022841","29","949","83","31006","Damme","1982-12-29","1982001920","5125441","9036361608","Damme"
"FALSE","FALSE",NA,"Hoge Watering",NA,NA,"YES","I_8340_5",NA,NA,"VMM_Mtp","Lotisch",NA,"West-Vlaanderen","Damme","8340","2","2129",NA,"Oostkustpolder","050/333271","waterbeheer@oostkustpolder.be","3.3407419744412","51.2398868866208","29","949","83","31006","Damme","1982-12-29","1982001920","5125441","9036361608","Damme"
"FALSE","FALSE","Schipdonkvaart-Zuid, jaagpad","Zuidervaartje",NA,NA,"YES","I_8340_6",NA,NA,"VMM_Mtp","Lotisch",NA,"West-Vlaanderen","Damme","8340","1","2124",NA,"VMM",NA,"d.slootmaekers@vmm.be","3.29792362232734","51.2629600959375","29","949","83","31006","Damme","1982-12-29","1982001920","5125441","9036361608","Damme"
"TRUE","TRUE","Rabattestraat","Zuidervaartje","m2u0nwi3","TBD","YES","I_8340_7",NA,NA,"VMM_Mtp","Lotisch",NA,"West-Vlaanderen","Damme","8340","1","2124",NA,"VMM",NA,"d.slootmaekers@vmm.be","3.2863563","51.2532994","29","949","83","31006","Damme","1982-12-29","1982001920","5125441","9036361608","Damme"
"TRUE","TRUE",NA,"Zwinnevaart","m2u0nwi3","TBD","YES","I_8340_8",NA,NA,"Scheers","Lotisch",NA,"West-Vlaanderen","Damme","8340","1","2230",NA,"VMM",NA,"d.slootmaekers@vmm.be","3.2831616","51.2782519","29","949","83","31006","Damme","1982-12-29","1982001920","5125441","9036361608","Damme"
"FALSE","FALSE",NA,NA,"mjcxzme1",NA,"YES","I_8340_9",NA,NA,NA,"Lotisch",NA,"West-Vlaanderen","Damme","8340",NA,NA,NA,NA,NA,NA,"3.335547096203","51.2905497022868","29","949","83","31006","Damme","1982-12-29","1982001920","5125441","9036361608","Damme"
"FALSE","FALSE",NA,NA,NA,NA,"YES","I_8340_10",NA,NA,NA,"Lotisch",NA,"West-Vlaanderen","Damme","8340",NA,NA,NA,NA,NA,NA,"3.35609596127127","51.2459338945852","29","949","83","31006","Damme","1982-12-29","1982001920","5125441","9036361608","Damme"
"TRUE","TRUE",NA,NA,"zgzlztnm","TBD","YES","I_8340_11",NA,NA,NA,"Lotisch",NA,"West-Vlaanderen","Damme","8340",NA,NA,NA,NA,NA,NA,"3.3950088","51.2430093","29","949","83","31006","Damme","1982-12-29","1982001920","5125441","9036361608","Damme"
"TRUE","TRUE",NA,"Ronselarebeek","zmrhymrm",NA,"NO","V_8000_6",NA,NA,NA,NA,NA,"West-Vlaanderen","Brugge","8000","NA","NA",NA,NA,NA,NA,"3.25270799621937","51.2571020022875","29","949","83","31006","Damme","1982-12-29","1982001920","5125441","9036361608","Damme"
"FALSE","FALSE",NA,"Zuidwatergang","mdbjyzfk",NA,"YES","I_8340_12",NA,NA,NA,NA,NA,"West-Vlaanderen","Damme","8340","NA","NA",NA,NA,NA,NA,"3.29166799621496","51.3052060022781","29","949","83","31006","Damme","1982-12-29","1982001920","5125441","9036361608","Damme"
"FALSE","FALSE",NA,NA,"ndfhyzg1","TBD","NO","V_8340_13",NA,NA,NA,NA,NA,"West-Vlaanderen","Damme","8340",NA,NA,NA,NA,NA,NA,"3.36370359619712","51.2989399022874","29","949","83","31006","Damme","1982-12-29","1982001920","5125441","9036361608","Damme"
"TRUE","TRUE",NA,NA,"ndfhyzg1",NA,"NO","V_8340_14",NA,NA,NA,NA,NA,"West-Vlaanderen","Damme","8340",NA,NA,NA,NA,NA,NA,"3.34519999620023","51.2860000022891","29","949","83","31006","Damme","1982-12-29","1982001920","5125441","9036361608","Damme"
"TRUE","TRUE",NA,NA,"ndfhyzg1",NA,"NO","V_8340_15",NA,NA,NA,NA,NA,"West-Vlaanderen","Damme","8340",NA,NA,NA,NA,NA,NA,"3.33899999620235","51.2923000022866","29","949","83","31006","Damme","1982-12-29","1982001920","5125441","9036361608","Damme"
"TRUE","TRUE",NA,NA,"ndfhyzg1",NA,"NO","V_8340_16",NA,NA,NA,NA,NA,"West-Vlaanderen","Damme","8340",NA,NA,NA,NA,NA,NA,"3.30449999621101","51.2964000022819","29","949","83","31006","Damme","1982-12-29","1982001920","5125441","9036361608","Damme"
"TRUE","TRUE",NA,"Hoekevaart","ndfhyzg1",NA,"NO","V_8340_17",NA,NA,NA,NA,NA,"West-Vlaanderen","Damme","8340","NA","NA",NA,NA,NA,NA,"3.33129999620491","51.2994000022839","29","949","83","31006","Damme","1982-12-29","1982001920","5125441","9036361608","Damme"
"TRUE","TRUE",NA,"De Platte Kreek (De kreken van Lapscheure)","ndfhyzg1",NA,"NO","V_8340_18",NA,NA,NA,NA,NA,"West-Vlaanderen","Damme","8340",NA,NA,NA,NA,NA,NA,"3.35769999619697","51.2833000022911","29","949","83","31006","Damme","1982-12-29","1982001920","5125441","9036361608","Damme"
"TRUE","TRUE",NA,NA,"ndfhyzg1",NA,"NO","V_8340_19",NA,NA,NA,NA,NA,"West-Vlaanderen","Damme","8340","NA","NA",NA,NA,NA,NA,"3.357599996197","51.2834000022911","29","949","83","31006","Damme","1982-12-29","1982001920","5125441","9036361608","Damme"
"TRUE","TRUE",NA,NA,"ndfhyzg1",NA,"NO","V_8340_20",NA,NA,NA,NA,NA,"West-Vlaanderen","Damme","8340",NA,NA,NA,NA,NA,NA,"3.34569999620144","51.2991000022855","29","949","83","31006","Damme","1982-12-29","1982001920","5125441","9036361608","Damme"
"TRUE","TRUE",NA,NA,"ndfhyzg1",NA,"NO","V_8340_21",NA,NA,NA,NA,NA,"West-Vlaanderen","Damme","8340",NA,NA,NA,NA,NA,NA,"3.30419999620867","51.2727000022885","29","949","83","31006","Damme","1982-12-29","1982001920","5125441","9036361608","Damme"
"TRUE","TRUE",NA,NA,"ndfhyzg1",NA,"NO","V_8340_22",NA,NA,NA,NA,NA,"West-Vlaanderen","Damme","8340",NA,NA,NA,NA,NA,NA,"3.30469999620855","51.2727000022885","29","949","83","31006","Damme","1982-12-29","1982001920","5125441","9036361608","Damme"
"TRUE","TRUE",NA,NA,"ndfhyzg1",NA,"NO","V_8340_23",NA,NA,NA,NA,NA,"West-Vlaanderen","Damme","8340",NA,NA,NA,NA,NA,NA,"3.29979999621256","51.3007000022802","29","949","83","31006","Damme","1982-12-29","1982001920","5125441","9036361608","Damme"
"TRUE","TRUE",NA,NA,"ndfhyzg1",NA,"NO","V_8340_24",NA,NA,NA,NA,NA,"West-Vlaanderen","Damme","8340",NA,NA,NA,NA,NA,NA,"3.35219999620027","51.3029000022851","29","949","83","31006","Damme","1982-12-29","1982001920","5125441","9036361608","Damme"
"TRUE","TRUE",NA,NA,"ndfhyzg1",NA,"NO","V_8340_25",NA,NA,NA,NA,NA,"West-Vlaanderen","Damme","8340",NA,NA,NA,NA,NA,NA,"3.29779099620961","51.2669450022894","29","949","83","31006","Damme","1982-12-29","1982001920","5125441","9036361608","Damme"
"FALSE","FALSE","Boorsem, Langeweidestraat, opw brug - meetplaats 381 (provincie Limburg)","Ziepbeek","mtbiodey",NA,"YES","I_3631_1","ziet er niet toegankelijk uit",NA,"VMM_Mtp","Lotisch",NA,"Limburg","Maasmechelen","3631","2","9766",NA,"Limburg",NA,"christel.bouchet@limburg.be","5.706293","50.9343809","34","951","38","73042","Lanaken","1982-07-17","1982001074","5062253","58953775","Lanaken"
"FALSE","FALSE","Rekem, Oude god, opw brug - meetplaats 377 (provincie Limburg)","Ziepbeek",NA,NA,"YES","I_3621_1","ziet er niet toegankelijk uit",NA,"VMM_Mtp","Lotisch",NA,"Limburg","Lanaken","3621","2","9766",NA,"Limburg",NA,"christel.bouchet@limburg.be","5.7055852","50.9233028","34","951","38","73042","Lanaken","1982-07-17","1982001074","5062253","58953775","Lanaken"
"FALSE","FALSE","freely accessible?, recreation area","Zonnevijver",NA,NA,"YES","I_3621_2",NA,NA,"Scheers","Lentisch",NA,"Limburg","Lanaken","3621",NA,NA,NA,NA,NA,NA,"5.66982839340958","50.9182746929746","34","951","38","73042","Lanaken","1982-07-17","1982001074","5062253","58953775","Lanaken"
"TRUE","TRUE","ANB","Aspermansvijver","odcxnmmx",NA,"YES","I_3621_3",NA,NA,"Scheers","Lentisch",NA,"Limburg","Lanaken","3621","NA","NA",NA,"Jacobs Karen",NA,"recreatie.lim.anb@vlaanderen.be","5.66343999559025","50.9361600026492","34","951","38","73042","Lanaken","1982-07-17","1982001074","5062253","58953775","Lanaken"
"FALSE","FALSE","gemeente Lanaken?",NA,NA,NA,"YES","I_3620_1",NA,NA,"Scheers","Lentisch",NA,"Limburg","Lanaken","3620",NA,NA,NA,NA,NA,NA,"5.6609594","50.9023994","34","951","38","73042","Lanaken","1982-07-17","1982001074","5062253","58953775","Lanaken"
"FALSE","FALSE","LILA","Grindplas Hochterbampt",NA,NA,"YES","I_3620_2",NA,NA,"Scheers","Lentisch",NA,"Limburg","Lanaken","3620",NA,NA,NA,NA,NA,NA,"5.6934187","50.9002087","34","951","38","73042","Lanaken","1982-07-17","1982001074","5062253","58953775","Lanaken"
"ONHOLD","ONHOLD",NA,"Broekgracht","otg3ytll",NA,"YES","I_1800_1",NA,NA,"Scheers","Lotisch",NA,"Vlaams-Brabant","Vilvoorde","1800","2","6873",NA,"Vlaams-Brabant",NA,"ingrid.beuls@vlaamsbrabant.be","4.4610634","50.953136","39","954","313","23088","Vilvoorde","1998-04-24","1998000040","329759","2157364058","Vilvoorde"
"ONHOLD","ONHOLD","Mispelarestraat","Heulebeek","zjm0zwm2",NA,"YES","I_8980_1",NA,NA,"VMM_Mtp","Lotisch",NA,"West-Vlaanderen","Zonnebeke","8980","2","58840",NA,"West-Vlaanderen",NA,NA,"3.0247939","50.8775229","46","956","244","33037","Zonnebeke","1976-01-23","1975123003","5245263","680927643","Zonnebeke"
"FALSE","FALSE","Beselare, Oude Kortrijkstraat, Reutel","Polygonebeek",NA,NA,"YES","I_8980_2",NA,NA,"VMM_Mtp","Lotisch",NA,"West-Vlaanderen","Zonnebeke","8980","2","4213",NA,"West-Vlaanderen",NA,NA,"2.99945091840122","50.8490032245218","46","956","244","33037","Zonnebeke","1976-01-23","1975123003","5245263","680927643","Zonnebeke"
"ONHOLD","ONHOLD",NA,"Heulebeek","zjm0zwm2",NA,"YES","I_8890_1",NA,NA,"VMM_Mtp","Lotisch",NA,"West-Vlaanderen","Moorslede","8890","2","4205",NA,"West-Vlaanderen",NA,NA,"3.0663245","50.8572822","46","956","244","33037","Zonnebeke","1976-01-23","1975123003","5245263","680927643","Zonnebeke"
"FALSE","FALSE","Kanne, opw 144000 tot 20m voor brug","Jeker",NA,NA,"YES","I_3770_1",NA,NA,"VMM_Mtp","Lotisch",NA,"Limburg","Riemst","3770","1","9504",NA,"VMM",NA,"d.slootmaekers@vmm.be","5.67058205727213","50.8158241299308","47","957","51","73066","Riemst","1982-07-17","1982001074","469343","5805689871","Riemst"
"ONHOLD","ONHOLD","zijbeek Hamonterbeek, Hamont, Lozerweg 100, via hoofdingang Lo kasteel De L'Escaille, opw onverharde weg","Lobeek","nthlmzez",NA,"YES","I_3930_1",NA,NA,"VMM_Mtp","Lotisch",NA,"Limburg","Hamont-Achel","3930","2","10201",NA,"Limburg",NA,"christel.bouchet@limburg.be","5.5574111","51.2091835","53","958","4","72037","Hamont-Achel","1976-01-23","1975123003","3199003","4373005549","Hamont-Achel"
"FALSE","FALSE","Hamont, Kluizerdijk, voor Achelse Kluis, 20m opw brug","Warmbeek",NA,NA,"YES","I_3930_2",NA,NA,"VMM_Mtp","Lotisch",NA,"Limburg","Hamont-Achel","3930","1","9508",NA,"VMM",NA,"d.slootmaekers@vmm.be","5.48764416303711","51.2955648390117","53","958","4","72037","Hamont-Achel","1976-01-23","1975123003","3199003","4373005549","Hamont-Achel"
"ONHOLD","ONHOLD","Achel, Koebroekerweg, einde traj 80m afw brug, begin traj aan gewone es op RO","Warmbeek","nthlmzez",NA,"YES","I_3930_3",NA,NA,"VMM_Mtp","Lotisch",NA,"Limburg","Hamont-Achel","3930","1","9508",NA,"VMM",NA,"d.slootmaekers@vmm.be","5.4958017","51.2687854","53","958","4","72037","Hamont-Achel","1976-01-23","1975123003","3199003","4373005549","Hamont-Achel"
"FALSE","FALSE","Oude Schelde Berchem Meerse","Rijtgracht",NA,NA,"YES","I_9690_1",NA,NA,"EcoWater","Lentisch",NA,"Oost-Vlaanderen","Kluisbergen","9690",NA,NA,NA,"Coppens Xavier",NA,"recreatie.ovl.anb@vlaanderen.be","3.54408479502335","50.8085979927936","59","960","297","45060","Kluisbergen","1976-01-23","1975123003","3037976","3063494074","Kluisbergen"
"FALSE","FALSE","Oude Schelde Scheiteput",NA,NA,NA,"YES","I_9690_2",NA,NA,"EcoWater","Lentisch",NA,"Oost-Vlaanderen","Kluisbergen","9690",NA,NA,NA,"Coppens Xavier",NA,"recreatie.ovl.anb@vlaanderen.be","3.52507609503581","50.8042644927942","59","960","297","45060","Kluisbergen","1976-01-23","1975123003","3037976","3063494074","Kluisbergen"
"FALSE","FALSE","Berchem,zijweg einde Meersestraat,Schijtput",NA,"ywzmndyy",NA,"YES","I_9690_3",NA,NA,"ANB_Mtp","Lentisch",NA,"Oost-Vlaanderen","Kluisbergen","9690",NA,NA,NA,"Coppens Xavier",NA,"recreatie.ovl.anb@vlaanderen.be","3.5254919961073","50.8039408024449","59","960","297","45060","Kluisbergen","1976-01-23","1975123003","3037976","3063494074","Kluisbergen"
"FALSE","FALSE","Berchem,Meers,Visserij","Rijtgracht",NA,NA,"YES","I_9690_4",NA,NA,"ANB_Mtp","Lentisch",NA,"Oost-Vlaanderen","Kluisbergen","9690",NA,NA,NA,"Coppens Xavier",NA,"recreatie.ovl.anb@vlaanderen.be","3.5443939468914","50.8085522900632","59","960","297","45060","Kluisbergen","1976-01-23","1975123003","3037976","3063494074","Kluisbergen"
"ONHOLD","ONHOLD","Aldeneik, Herenlaakweg, aan rotonde linker fietsweg, 1ste pad links naar beneden","Bosbeek","ody0zmu1",NA,"YES","I_3680_1",NA,NA,"VMM_Mtp","Lotisch",NA,"Limburg","Maaseik","3680","1","10004",NA,"VMM",NA,"d.slootmaekers@vmm.be","5.809133","51.1040778","61","961","20","72021","Maaseik","1982-07-17","1982001074","6098599","7718416843","Maaseik"
"FALSE","FALSE","Opoeteren, Volmolenstraat, thv Volmolen, opw verval","Bosbeek",NA,NA,"YES","I_3680_2",NA,NA,"VMM_Mtp","Lotisch",NA,"Limburg","Maaseik","3680","1","10004",NA,"VMM",NA,"d.slootmaekers@vmm.be","5.67376556008988","51.0767058091043","61","961","20","72021","Maaseik","1982-07-17","1982001074","6098599","7718416843","Maaseik"
"FALSE","FALSE","Opoeteren, Dorpermolenstraat thv huis nr.2, 30m opw. molen LO","Bosbeek",NA,NA,"YES","I_3680_3",NA,NA,"VMM_Mtp","Lotisch",NA,"Limburg","Maaseik","3680","1","10004",NA,"VMM",NA,"d.slootmaekers@vmm.be","5.65426558840057","51.0682086995667","61","961","20","72021","Maaseik","1982-07-17","1982001074","6098599","7718416843","Maaseik"
"ONHOLD","ONHOLD","Opoeteren, Kasteelstraat, afw brug","Bosbeek","nzzlmmvm",NA,"YES","I_3680_4",NA,NA,"VMM_Mtp","Lotisch",NA,"Limburg","Maaseik","3680","1","10004",NA,"VMM",NA,"d.slootmaekers@vmm.be","5.6356721","51.0563721","61","961","20","72021","Maaseik","1982-07-17","1982001074","6098599","7718416843","Maaseik"
"FALSE","FALSE","Slagmolen, opw en afw brug","Bosbeek","nzzlmmvm",NA,"YES","I_3660_1",NA,NA,"VMM_Mtp","Lotisch",NA,"Limburg","Oudsbergen","3660","1","10004",NA,"VMM",NA,"d.slootmaekers@vmm.be","5.67345699560286","51.0767210026086","61","961","20","72021","Maaseik","1982-07-17","1982001074","6098599","7718416843","Maaseik"
