"isReserved","updateRes","OMSCHR","NAAM","vrijwillID","startDate","SugbyINBO","locID","restricties","Sampler","dataset","SystemType","GEBIED","provincie","gemeente","postcode","CATC","VHAG","WVLC","Beheerder","Bhrtel","Bhremail","OIDN","UIDN","TERRID","NISCODE","NAAM.1","DATPUBLBS","NUMAC","LENGTE","OPPERVL","GEMNAAM","Longitude","Latitude"
"FALSE","FALSE",NA,"Abeek",NA,NA,"YES","I_3670_1",NA,NA,"VMM_Mtp","Lotisch",NA,"Limburg","Oudsbergen","3670","2","9505",NA,"Limburg",NA,"christel.bouchet@limburg.be","310","745","364","72042","Oudsbergen","2018-06-01","2018012105","582081","1163706502","Oudsbergen","5.52136226787471","51.1339158997741"
"FALSE","FALSE","Meeuwen, zijweg Berkenstr., afw weg, Meeuwen-Guitrode","Hommelbeek",NA,NA,"YES","I_3670_2",NA,NA,"VMM_Mtp","Lotisch",NA,"Limburg","Oudsbergen","3670","2","9630",NA,"Limburg",NA,"christel.bouchet@limburg.be","310","745","364","72042","Oudsbergen","2018-06-01","2018012105","582081","1163706502","Oudsbergen","5.50222749564938","51.1035905025805"
"FALSE","FALSE","Meeuwen; Broekkant","Bullenbeek",NA,NA,"YES","I_3670_3",NA,NA,"VMM_Mtp","Lotisch",NA,"Limburg","Oudsbergen","3670","2","9594",NA,"Limburg",NA,"christel.bouchet@limburg.be","310","745","364","72042","Oudsbergen","2018-06-01","2018012105","582081","1163706502","Oudsbergen","5.51095514498325","51.0869824033796"
"FALSE","FALSE","Ellikom, Neermolenstraat, begin traject 100 m afw verval aan Neermolen, Xcoördinaat","Abeek",NA,NA,"YES","I_3670_4",NA,NA,"VMM_Mtp","Lotisch",NA,"Limburg","Oudsbergen","3670","2","9505",NA,"Limburg",NA,"christel.bouchet@limburg.be","310","745","364","72042","Oudsbergen","2018-06-01","2018012105","582081","1163706502","Oudsbergen","5.52140503956525","51.1344908266896"
"FALSE","FALSE","Ellikom, Brogelerweg, einde traject 10m afw brug","Abeek",NA,NA,"YES","I_3670_5",NA,NA,"VMM_Mtp","Lotisch",NA,"Limburg","Oudsbergen","3670","2","9505",NA,"Limburg",NA,"christel.bouchet@limburg.be","310","745","364","72042","Oudsbergen","2018-06-01","2018012105","582081","1163706502","Oudsbergen","5.52133212064562","51.130958559955"
"TRUE","TRUE","begin traject 100m opw molen","Abeek","mznkyti0","15/07/2024","YES","I_3670_6",NA,NA,"VMM_Mtp","Lotisch",NA,"Limburg","Oudsbergen","3670","2","9505",NA,"Limburg",NA,"christel.bouchet@limburg.be","310","745","364","72042","Oudsbergen","2018-06-01","2018012105","582081","1163706502","Oudsbergen","5.51500789564836","51.1244491025758"
"FALSE","FALSE",NA,"Ruiterskuilen","nzzlmmvm",NA,"YES","I_3660_2","te zuur",NA,NA,NA,NA,"Limburg","Oudsbergen","3660",NA,NA,NA,"Jacobs Karen",NA,"recreatie.lim.anb@vlaanderen.be","310","745","364","72042","Oudsbergen","2018-06-01","2018012105","582081","1163706502","Oudsbergen","5.54272679563322","51.0490058026014"
"FALSE","FALSE",NA,"Turfven","nzzlmmvm",NA,"YES","I_3660_3","te zuur",NA,NA,NA,NA,"Limburg","Oudsbergen","3660",NA,NA,NA,"Jacobs Karen",NA,"recreatie.lim.anb@vlaanderen.be","310","745","364","72042","Oudsbergen","2018-06-01","2018012105","582081","1163706502","Oudsbergen","5.54724369563275","51.0553657026"
"FALSE","FALSE",NA,"Watering De Vreenebeek",NA,NA,"YES","I_3670_7",NA,NA,NA,NA,NA,"Limburg","Oudsbergen","3670",NA,NA,NA,NA,NA,NA,"310","745","364","72042","Oudsbergen","2018-06-01","2018012105","582081","1163706502","Oudsbergen","5.51571669564449","51.0899777025861"
"FALSE","FALSE",NA,"Watering De Vreenebeek","nzzlmmvm",NA,"YES","I_3670_8",NA,NA,NA,NA,NA,"Limburg","Oudsbergen","3670","NA","NA",NA,NA,NA,NA,"310","745","364","72042","Oudsbergen","2018-06-01","2018012105","582081","1163706502","Oudsbergen","5.52356509564068","51.073104902592"
"TRUE","TRUE",NA,NA,"nzzlmmvm",NA,"NO","V_3660_4",NA,NA,NA,NA,NA,"Limburg","Oudsbergen","3660",NA,NA,NA,NA,NA,NA,"310","745","364","72042","Oudsbergen","2018-06-01","2018012105","582081","1163706502","Oudsbergen","5.5861999956194","51.023500002614"
"TRUE","TRUE","Ruisbroek; einde Donkstr - Vlietdijk opw. brug thv pompstation","Grote Molenbeek","zwuxmwy1","09/07/2024","YES","I_2870_1",NA,NA,"VMM_Mtp","Lotisch",NA,"Antwerpen","Puurs-Sint-Amands","2870","1","6",NA,"VMM",NA,"d.slootmaekers@vmm.be","311","746","369","12041","Puurs-Sint-Amands","2018-06-01","2018012103","4010158","4913837228","Puurs-Sint-Amands","4.31745249594477","51.0950370024481"
"TRUE","TRUE","Ruisbroek, St. Katharinastr., afw Moerloop","Birrebeek","zwuxmwy1","09/07/2024","YES","I_2870_2",NA,NA,"VMM_Mtp","Lotisch",NA,"Antwerpen","Puurs-Sint-Amands","2870","1","3106",NA,"VMM",NA,"d.slootmaekers@vmm.be","311","746","369","12041","Puurs-Sint-Amands","2018-06-01","2018012103","4010158","4913837228","Puurs-Sint-Amands","4.33886299593737","51.0746396024564"
"FALSE","FALSE","Ruisbroek; einde Donkstr - Vlietdijk; beginnen aan brug thv pompstation(mtp 225000)","Grote Molenbeek",NA,NA,"YES","I_2870_3",NA,NA,"VMM_Mtp","Lotisch",NA,"Antwerpen","Puurs-Sint-Amands","2870","1","6",NA,"VMM",NA,"d.slootmaekers@vmm.be","311","746","369","12041","Puurs-Sint-Amands","2018-06-01","2018012103","4010158","4913837228","Puurs-Sint-Amands","4.31748099594476","51.0950190024481"
"TRUE","TRUE","Puurs; Achterheide; beginnen aan fietsbrugje","Grote Molenbeek","njm2yzlk","TBD","YES","I_2890_1",NA,NA,"VMM_Mtp","Lotisch",NA,"Antwerpen","Puurs-Sint-Amands","2890","1","6",NA,"VMM",NA,"d.slootmaekers@vmm.be","311","746","369","12041","Puurs-Sint-Amands","2018-06-01","2018012103","4010158","4913837228","Puurs-Sint-Amands","4.26214469595409","51.0541728024537"
"FALSE","FALSE","Ruisbroek; Ooievaarsnest; 50m afw mtp 234000; direct na bloembak paadje inrijden tot aan slagboom","Birrebeek",NA,NA,"YES","I_2870_4",NA,NA,"VMM_Mtp","Lotisch",NA,"Antwerpen","Puurs-Sint-Amands","2870","1","3106",NA,"VMM",NA,"d.slootmaekers@vmm.be","311","746","369","12041","Puurs-Sint-Amands","2018-06-01","2018012103","4010158","4913837228","Puurs-Sint-Amands","4.34003287872214","51.0749364838182"
"FALSE","FALSE","Puurs; Gansbroekstraat; 100m opwaarts TR233000.1","Birrebeek",NA,NA,"YES","I_2870_5",NA,NA,"VMM_Mtp","Lotisch",NA,"Antwerpen","Puurs-Sint-Amands","2870","1","3106",NA,"VMM",NA,"d.slootmaekers@vmm.be","311","746","369","12041","Puurs-Sint-Amands","2018-06-01","2018012103","4010158","4913837228","Puurs-Sint-Amands","4.34349770697386","51.0795934885693"
"FALSE","FALSE",NA,NA,NA,NA,"YES","I_2870_6",NA,NA,"Scheers","Lentisch",NA,"Antwerpen","Puurs-Sint-Amands","2870",NA,NA,NA,NA,NA,NA,"311","746","369","12041","Puurs-Sint-Amands","2018-06-01","2018012103","4010158","4913837228","Puurs-Sint-Amands","4.28576239457377","51.0674495927186"
"TRUE","TRUE",NA,"Hof ter Zielbeek","zwuxmwy1","09/07/2024","NO","V_2870_7",NA,NA,NA,NA,NA,"Antwerpen","Puurs-Sint-Amands","2870",NA,NA,NA,NA,NA,NA,"311","746","369","12041","Puurs-Sint-Amands","2018-06-01","2018012103","4010158","4913837228","Puurs-Sint-Amands","4.33810379593762","51.0753132024561"
"TRUE","TRUE",NA,"Vliet","mthjnmy5","09/09/24","YES","I_2880_12",NA,NA,NA,NA,NA,"Antwerpen","Bornem","2880","NA","NA",NA,NA,NA,NA,"311","746","369","12041","Puurs-Sint-Amands","2018-06-01","2018012103","4010158","4913837228","Puurs-Sint-Amands","4.31271549594568","51.0925450024483"
"TRUE","TRUE",NA,"Koningsbeek","njm2yzlk","TBD","YES","I_2870_8",NA,NA,NA,NA,NA,"Antwerpen","Puurs-Sint-Amands","2870","NA","NA",NA,NA,NA,NA,"311","746","369","12041","Puurs-Sint-Amands","2018-06-01","2018012103","4010158","4913837228","Puurs-Sint-Amands","4.2672168959556","51.0804692024467"
"TRUE","TRUE",NA,"Vliet","njm2yzlk","TBD","YES","I_2870_9",NA,NA,NA,NA,NA,"Antwerpen","Puurs-Sint-Amands","2870","NA","NA",NA,NA,NA,NA,"311","746","369","12041","Puurs-Sint-Amands","2018-06-01","2018012103","4010158","4913837228","Puurs-Sint-Amands","4.2699230959541","51.0725540024493"
"FALSE","FALSE","Poeke,Kasteelwijk,Kasteelstraat,afw weg","Poekebeek",NA,NA,"YES","I_9880_1",NA,NA,"VMM_Mtp","Lotisch",NA,"Oost-Vlaanderen","Aalter","9880","1","27",NA,"VMM",NA,"d.slootmaekers@vmm.be","313","748","367","44084","Aalter","2018-06-01","2018012109","6156398","11985075639","Aalter","3.4518700232104","51.0401667503456"
"FALSE","FALSE","Over Leiestraat",NA,NA,NA,"YES","I_9910_1",NA,NA,"VMM_Mtp","Lotisch",NA,"Oost-Vlaanderen","Aalter","9910","2","1036",NA,"Oost-Vlaanderen",NA,"waterbeleid@oost-vlaanderen.be","313","748","367","44084","Aalter","2018-06-01","2018012109","6156398","11985075639","Aalter","3.38813325654013","51.1184119048906"
"FALSE","FALSE","Bellem, Eksterstraat","Fortloop",NA,NA,"YES","I_9881_1",NA,NA,"VMM_Mtp","Lotisch",NA,"Oost-Vlaanderen","Aalter","9881","2","397",NA,"Oost-Vlaanderen",NA,"waterbeleid@oost-vlaanderen.be","313","748","367","44084","Aalter","2018-06-01","2018012109","6156398","11985075639","Aalter","3.50725119614283","51.1045717023573"
"FALSE","FALSE","Poeke,Kasteelstraat,afw weg","Poekebeek",NA,NA,"YES","I_9880_2",NA,NA,"VMM_Mtp","Lotisch",NA,"Oost-Vlaanderen","Aalter","9880","1","27",NA,"VMM",NA,"d.slootmaekers@vmm.be","313","748","367","44084","Aalter","2018-06-01","2018012109","6156398","11985075639","Aalter","3.45206873076342","51.0394850815682"
"FALSE","FALSE",NA,NA,NA,"TBD","YES","I_9880_3",NA,NA,NA,NA,NA,"Oost-Vlaanderen","Aalter","9880",NA,NA,NA,NA,NA,NA,"313","748","367","44084","Aalter","2018-06-01","2018012109","6156398","11985075639","Aalter","3.4007049961689","51.1093890023445"
"FALSE","FALSE",NA,"Kraenepoel","n2vintk4",NA,"NO","V_9880_4",NA,NA,NA,NA,NA,"Oost-Vlaanderen","Aalter","9880",NA,NA,NA,"Meulebrouck Klaar",NA,"recreatie.ovl.anb@vlaanderen.be","313","748","367","44084","Aalter","2018-06-01","2018012109","6156398","11985075639","Aalter","3.48191309614577","51.0739506023632"
"FALSE","FALSE",NA,NA,"n2vintk4",NA,"NO","V_9880_5",NA,NA,NA,NA,NA,"Oost-Vlaanderen","Aalter","9880",NA,NA,NA,NA,NA,NA,"313","748","367","44084","Aalter","2018-06-01","2018012109","6156398","11985075639","Aalter","3.47539489615046","51.1043220023539"
"FALSE","FALSE","Bisdonkstraat, veldwegel thv bocht","Stokstormbeek",NA,NA,"YES","I_9770_1",NA,NA,"VMM_Mtp","Lotisch",NA,"Oost-Vlaanderen","Kruisem","9770","2","4463",NA,"Oost-Vlaanderen",NA,"waterbeleid@oost-vlaanderen.be","314","749","366","45068","Kruisem","2018-06-01","2018012104","5440716","7158974805","Kruisem","3.52127821889777","50.9466270210698"
"FALSE","FALSE","Nokere, Beerstraat",NA,NA,NA,"YES","I_9771_1",NA,NA,"VMM_Mtp","Lotisch",NA,"Oost-Vlaanderen","Kruisem","9771","2","4355",NA,"Oost-Vlaanderen",NA,"waterbeleid@oost-vlaanderen.be","314","749","366","45068","Kruisem","2018-06-01","2018012104","5440716","7158974805","Kruisem","3.49006596838657","50.8860573851255"
"FALSE","FALSE","Ouwegem, Den Bos, afw weg","Stampkotbeek",NA,NA,"YES","I_9750_1",NA,NA,"VMM_Mtp","Lotisch",NA,"Oost-Vlaanderen","Kruisem","9750","2","5274",NA,"Oost-Vlaanderen",NA,"waterbeleid@oost-vlaanderen.be","314","749","366","45068","Kruisem","2018-06-01","2018012104","5440716","7158974805","Kruisem","3.61659816842708","50.9214655610026"
"FALSE","FALSE","Huise, Driesstraat, 50m opw weg","Stampkotbeek",NA,NA,"YES","I_9750_2",NA,NA,"VMM_Mtp","Lotisch",NA,"Oost-Vlaanderen","Kruisem","9750","2","5603",NA,"Oost-Vlaanderen",NA,"waterbeleid@oost-vlaanderen.be","314","749","366","45068","Kruisem","2018-06-01","2018012104","5440716","7158974805","Kruisem","3.58933790113112","50.8928980594634"
"FALSE","FALSE","Appelhoekstraat, thv Lozerkasteel","Stampkotbeek",NA,NA,"YES","I_9770_2",NA,NA,"VMM_Mtp","Lotisch",NA,"Oost-Vlaanderen","Kruisem","9770","2","5274",NA,"Oost-Vlaanderen",NA,"waterbeleid@oost-vlaanderen.be","314","749","366","45068","Kruisem","2018-06-01","2018012104","5440716","7158974805","Kruisem","3.56148709710017","50.9147262688547"
"FALSE","FALSE","Den Bos, opw brug","Stampkotbeek",NA,NA,"YES","I_9750_3",NA,NA,"VMM_Mtp","Lotisch",NA,"Oost-Vlaanderen","Kruisem","9750","3","5274",NA,NA,NA,NA,"314","749","366","45068","Kruisem","2018-06-01","2018012104","5440716","7158974805","Kruisem","3.61632724519778","50.9215087764571"
"FALSE","FALSE","Neereichemstraat afw brug","Stampkotbeek",NA,NA,"YES","I_9770_3",NA,NA,"VMM_Mtp","Lotisch",NA,"Oost-Vlaanderen","Kruisem","9770","2","5274",NA,"Oost-Vlaanderen",NA,"waterbeleid@oost-vlaanderen.be","314","749","366","45068","Kruisem","2018-06-01","2018012104","5440716","7158974805","Kruisem","3.5805275592464","50.9241150064259"
"FALSE","FALSE","Oude Schelde Mesureput","Mesureput",NA,NA,"YES","I_9750_4",NA,NA,"EcoWater","Lentisch",NA,"Oost-Vlaanderen","Kruisem","9750",NA,NA,NA,NA,NA,NA,"314","749","366","45068","Kruisem","2018-06-01","2018012104","5440716","7158974805","Kruisem","3.68431519495927","50.8994297927543"
"FALSE","FALSE","Oude Schelde Spettekraai","Oude Schelde Spetterkraai","zgexogy3",NA,"YES","I_9750_5",NA,NA,"EcoWater","Lentisch",NA,"Oost-Vlaanderen","Kruisem","9750",NA,NA,NA,NA,NA,NA,"314","749","366","45068","Kruisem","2018-06-01","2018012104","5440716","7158974805","Kruisem","3.67283559608101","50.8932680024353"
"TRUE","TRUE",NA,"Mesureput","zgexogy3",NA,"NO","V_9750_6",NA,NA,NA,NA,NA,"Oost-Vlaanderen","Kruisem","9750",NA,NA,NA,NA,NA,NA,"314","749","366","45068","Kruisem","2018-06-01","2018012104","5440716","7158974805","Kruisem","3.68504699607908","50.9031710024338"
"FALSE","FALSE","Duffelstraat, opw overstort","Bemortelloop",NA,NA,"YES","I_2860_1","bij voorkeur tussen 20/07 - 01/09",NA,"VMM_Mtp","Lotisch",NA,"Antwerpen","Sint-Katelijne-Waver","2860","2","9147",NA,"Antwerpen",NA,"hans.vanloy@provincieantwerpen.be","2","752","169","12035","Sint-Katelijne-Waver","1976-01-23","1975123003","3556452","3615607789","Sint-Katelijne-Waver","4.51100889774557","51.0780082282022"
"FALSE","FALSE","St-Katelijne-Waver, Kempenaerstr, tov Green partners, opw weg, opw overstort","Otterbeek",NA,NA,"YES","I_2860_2","bij voorkeur tussen 20/07 - 01/09",NA,"VMM_Mtp","Lotisch",NA,"Antwerpen","Sint-Katelijne-Waver","2860","2","6949",NA,"Antwerpen",NA,"hans.vanloy@provincieantwerpen.be","2","752","169","12035","Sint-Katelijne-Waver","1976-01-23","1975123003","3556452","3615607789","Sint-Katelijne-Waver","4.51971394258309","51.0649904107494"
"FALSE","FALSE","Duffel; Beukendreef; 50m opw brug (aan dikke canadaboom)","Goorbosbeek",NA,NA,"YES","I_2860_3","bij voorkeur tussen 20/07 - 01/09",NA,"VMM_Mtp","Lotisch",NA,"Antwerpen","Sint-Katelijne-Waver","2860","2","9112",NA,"Antwerpen",NA,"hans.vanloy@provincieantwerpen.be","2","752","169","12035","Sint-Katelijne-Waver","1976-01-23","1975123003","3556452","3615607789","Sint-Katelijne-Waver","4.48349011374684","51.0751529597008"
"FALSE","FALSE",NA,NA,"odbjody4",NA,"YES","I_2860_4",NA,NA,"Scheers","Lentisch",NA,"Antwerpen","Sint-Katelijne-Waver","2860",NA,NA,NA,NA,NA,NA,"2","752","169","12035","Sint-Katelijne-Waver","1976-01-23","1975123003","3556452","3615607789","Sint-Katelijne-Waver","4.51098719589333","51.0598583024798"
"FALSE","FALSE","Wiekevorst;Valleistraat, (FC) opw en (Bio) afw brug en verval","Wimp",NA,NA,"YES","I_2222_1",NA,NA,"VMM_Mtp","Lotisch",NA,"Antwerpen","Heist-op-den-Berg","2222","1","8507",NA,"VMM",NA,"d.slootmaekers@vmm.be","11","755","150","12014","Heist-op-den-Berg","1982-12-29","1982001920","6124209","8667364961","Heist-op-den-Berg","4.79811729264823","51.1155493750437"
"FALSE","FALSE","Wiekevorst; Morkhovenseweg-Wiekevorstseweg, opw brug en overstort","Wimp",NA,NA,"YES","I_2222_2",NA,NA,"VMM_Mtp","Lotisch",NA,"Antwerpen","Heist-op-den-Berg","2222","1","8507",NA,"VMM",NA,"d.slootmaekers@vmm.be","11","755","150","12014","Heist-op-den-Berg","1982-12-29","1982001920","6124209","8667364961","Heist-op-den-Berg","4.80687516707186","51.1113552592211"
"FALSE","FALSE","Wiekevorst; Wiekevorstseweg; opw brug","Wimp",NA,NA,"YES","I_2222_3",NA,NA,"VMM_Mtp","Lotisch",NA,"Antwerpen","Heist-op-den-Berg","2222","1","8507",NA,"VMM",NA,"d.slootmaekers@vmm.be","11","755","150","12014","Heist-op-den-Berg","1982-12-29","1982001920","6124209","8667364961","Heist-op-den-Berg","4.80671893636519","51.1114457294394"
"TRUE","TRUE","Heist o/d Berg; Heistseweg; einde zandweg naast huisnr 133","Bergebeek","mmm4mzq3","TBD","YES","I_2221_1","bij voorkeur tussen 20/07 - 01/09",NA,"VMM_Mtp","Lotisch",NA,"Antwerpen","Heist-op-den-Berg","2221","2","8620",NA,"Antwerpen",NA,"hans.vanloy@provincieantwerpen.be","11","755","150","12014","Heist-op-den-Berg","1982-12-29","1982001920","6124209","8667364961","Heist-op-den-Berg","4.7628235958319","51.0701906025052"
"TRUE","TRUE","Heist o/d Berg; Booischot; Peerdsdonkendreef; einde asfaltbaan","Herseltseloop","ztfhota2","26/8/24","YES","I_2221_2","bij voorkeur tussen 20/07 - 01/09",NA,"VMM_Mtp","Lotisch",NA,"Antwerpen","Heist-op-den-Berg","2221","2","8956",NA,"Antwerpen",NA,"hans.vanloy@provincieantwerpen.be","11","755","150","12014","Heist-op-den-Berg","1982-12-29","1982001920","6124209","8667364961","Heist-op-den-Berg","4.78322789582454","51.0486977025138"
"TRUE","TRUE",NA,NA,"mmm4mzq3","TBD","NO","V_2222_4",NA,NA,NA,NA,NA,"Antwerpen","Heist-op-den-Berg","2222",NA,NA,NA,NA,NA,NA,"11","755","150","12014","Heist-op-den-Berg","1982-12-29","1982001920","6124209","8667364961","Heist-op-den-Berg","4.70024589585289","51.1215562024832"
"FALSE","FALSE",NA,"Houtvense Loop",NA,"TBD","YES","I_2221_3","Te ondiep, recent uitgegraven",NA,NA,NA,NA,"Antwerpen","Heist-op-den-Berg","2221","NA","NA",NA,NA,NA,NA,"11","755","150","12014","Heist-op-den-Berg","1982-12-29","1982001920","6124209","8667364961","Heist-op-den-Berg","4.7877306958246","51.059865402511"
"TRUE","TRUE",NA,NA,"odcxnmmx",NA,"YES","I_2220_1",NA,NA,NA,NA,NA,"Antwerpen","Heist-op-den-Berg","2220",NA,NA,NA,NA,NA,NA,"11","755","150","12014","Heist-op-den-Berg","1982-12-29","1982001920","6124209","8667364961","Heist-op-den-Berg","4.74089999583951","51.0906000024968"
"FALSE","FALSE","Muizen, Muizenhoekstr, opw brug","Vrouwvliet",NA,NA,"YES","I_2820_1",NA,NA,"VMM_Mtp","Lotisch",NA,"Antwerpen","Bonheiden","2820","1","6553",NA,"VMM",NA,"d.slootmaekers@vmm.be","23","762","184","12005","Bonheiden","1982-12-29","1982001920","3606833","2919135595","Bonheiden","4.5278815282509","51.021293127385"
"FALSE","FALSE","Bonheiden/Muizen, einde Eikendreef, opw wandelbrug begin Mechels Broek","Vrouwvliet",NA,NA,"YES","I_2812_2",NA,NA,"VMM_Mtp","Lotisch",NA,"Antwerpen","Bonheiden","2812","1","6553",NA,"VMM",NA,"d.slootmaekers@vmm.be","23","762","184","12005","Bonheiden","1982-12-29","1982001920","3606833","2919135595","Bonheiden","4.52092124913503","51.024079986843"
"TRUE","TRUE","Rijmenam/Boortmeerbeek, Rijmenamsebn, opw 387950 en opw brug","Leibeek","ymuxmjez","TBD","YES","I_3190_4","bij voorkeur tussen 20/07 - 01/09",NA,"VMM_Mtp","Lotisch",NA,"Antwerpen","Bonheiden","3190","2","6558",NA,"Antwerpen",NA,"hans.vanloy@provincieantwerpen.be","23","762","184","12005","Bonheiden","1982-12-29","1982001920","3606833","2919135595","Bonheiden","4.58167329586854","50.9908156025078"
"FALSE","FALSE","Keerbergen, Bakestraat, aan bakkerij DITS, opw weg","Vrouwvliet",NA,NA,"YES","I_3140_1",NA,NA,"VMM_Mtp","Lotisch",NA,"Vlaams-Brabant","Keerbergen","3140","2","6553",NA,"Vlaams-Brabant",NA,"ingrid.beuls@vlaamsbrabant.be","25","764","201","24048","Keerbergen","1982-12-29","1982001920","2317355","1854284734","Keerbergen","4.62961115193262","51.0104589791963"
"FALSE","FALSE","Lo, Klarewal-zijweg","Collaertshillebeek",NA,NA,"YES","I_8647_1",NA,NA,"VMM_Mtp","Lotisch",NA,"West-Vlaanderen","Lo-Reninge","8647","2","1409",NA,"Westkustpolder","058/314653","info@westkustpolder.be","33","768","198","32030","Lo-Reninge","1982-12-29","1982001920","5318856","6339820768","Lo-Reninge","2.7244505704896","50.9936606473913"
"FALSE","FALSE","Reninge, Bernardplaatsstraat, Bernardusplasbrug","Kemmelbeek",NA,NA,"YES","I_8647_2",NA,NA,"VMM_Mtp","Lotisch",NA,"West-Vlaanderen","Lo-Reninge","8647","1","1204",NA,"VMM",NA,"d.slootmaekers@vmm.be","33","768","198","32030","Lo-Reninge","1982-12-29","1982001920","5318856","6339820768","Lo-Reninge","2.82523534681979","50.9226917330922"
"FALSE","FALSE","Zuidschote, op baan Zuidschote-Reninge (saf!)","Kemmelbeek",NA,NA,"YES","I_8647_3",NA,NA,"VMM_Mtp","Lotisch",NA,"West-Vlaanderen","Lo-Reninge","8647","1","1204",NA,"VMM",NA,"d.slootmaekers@vmm.be","33","768","198","32030","Lo-Reninge","1982-12-29","1982001920","5318856","6339820768","Lo-Reninge","2.82542957207161","50.9146201261268"
"ONHOLD","ONHOLD","Reninge, Broekstraat, Waterhoek","Kemmelbeek","ndk3mty3",NA,"YES","I_8647_4",NA,NA,"VMM_Mtp","Lotisch",NA,"West-Vlaanderen","Lo-Reninge","8647","1","1204",NA,"VMM",NA,"d.slootmaekers@vmm.be","33","768","198","32030","Lo-Reninge","1982-12-29","1982001920","5318856","6339820768","Lo-Reninge","2.7922607","50.953193"
"FALSE","FALSE","Reninge, Bernardplaatsstraat","Kemmelbeek",NA,NA,"YES","I_8647_5",NA,NA,"VMM_Mtp","Lotisch",NA,"West-Vlaanderen","Lo-Reninge","8647","1","1204",NA,"VMM",NA,"d.slootmaekers@vmm.be","33","768","198","32030","Lo-Reninge","1982-12-29","1982001920","5318856","6339820768","Lo-Reninge","2.82451022239236","50.9235453670685"
"FALSE","FALSE",NA,NA,"nzm3mdi0",NA,"YES","I_8647_6",NA,NA,NA,"Lotisch",NA,"West-Vlaanderen","Lo-Reninge","8647",NA,NA,NA,NA,NA,NA,"33","768","198","32030","Lo-Reninge","1982-12-29","1982001920","5318856","6339820768","Lo-Reninge","2.77178599630303","50.9586893023209"
"ONHOLD","ONHOLD",NA,"Lovaart","ndk3mty3",NA,"YES","I_8647_7",NA,NA,NA,"Lotisch",NA,"West-Vlaanderen","Lo-Reninge","8647","NA","NA",NA,NA,NA,NA,"33","768","198","32030","Lo-Reninge","1982-12-29","1982001920","5318856","6339820768","Lo-Reninge","2.7356841","50.9647428"
"FALSE","FALSE","Otegem,  Zwevegemstraat","Kleine Kasselrijbeek",NA,NA,"YES","I_8553_1",NA,NA,"VMM_Mtp","Lotisch",NA,"West-Vlaanderen","Zwevegem","8553","2","4628",NA,"West-Vlaanderen",NA,NA,"43","773","291","34042","Zwevegem","1976-01-23","1975123003","4429399","6361132459","Zwevegem","3.40700885848347","50.8131430159684"
"TRUE","TRUE","Sint-Denijsstraat, Kreupel, afw","Slijpbeek","zguxztnj","18/07/24","YES","I_8550_1","Waterstand te laag?",NA,"VMM_Mtp","Lotisch",NA,"West-Vlaanderen","Zwevegem","8550","2","18815",NA,"West-Vlaanderen",NA,NA,"43","773","291","34042","Zwevegem","1976-01-23","1975123003","4429399","6361132459","Zwevegem","3.340027996151","50.7950431024274"
"FALSE","FALSE","Moen,Kraaibosstraat,afw weg","Oliebergbeek",NA,NA,"YES","I_8552_1",NA,NA,"VMM_Mtp","Lotisch",NA,"West-Vlaanderen","Zwevegem","8552","2","163",NA,"West-Vlaanderen",NA,NA,"43","773","291","34042","Zwevegem","1976-01-23","1975123003","4429399","6361132459","Zwevegem","3.37833333098667","50.777913572435"
"FALSE","FALSE","Otterbeek-Sop brug bij 632350- Kappaard","Slijpbeek","zguxztnj",NA,"YES","I_8550_2",NA,NA,"VMM_Mtp","Lotisch",NA,"West-Vlaanderen","Zwevegem","8550","2","18815",NA,"West-Vlaanderen",NA,NA,"43","773","291","34042","Zwevegem","1976-01-23","1975123003","4429399","6361132459","Zwevegem","3.35925899614922","50.8222960024217"
"FALSE","FALSE",NA,"Keibeek",NA,NA,"YES","I_8550_3",NA,NA,"VMM_Mtp","Lotisch",NA,"West-Vlaanderen","Zwevegem","8550","2","4339",NA,"West-Vlaanderen",NA,NA,"43","773","291","34042","Zwevegem","1976-01-23","1975123003","4429399","6361132459","Zwevegem","3.32390134389209","50.8083862821111"
"FALSE","FALSE","Tongerlo; langs Groenstraat; begin traject achter huisnummer 20 aan brugje","Itterbeek",NA,NA,"YES","I_3960_1",NA,NA,"VMM_Mtp","Lotisch",NA,"Limburg","Bree","3960","2","9522",NA,"Limburg",NA,"christel.bouchet@limburg.be","65","786","14","72004","Bree","1982-07-17","1982001074","4116786","6498307447","Bree","5.66633943168276","51.126907982843"
"FALSE","FALSE","Bree; zijweg Abroxweg; begin traject 30m opw brug","Abeek",NA,NA,"YES","I_3960_2",NA,NA,"VMM_Mtp","Lotisch",NA,"Limburg","Bree","3960","1","9505",NA,"VMM",NA,"d.slootmaekers@vmm.be","65","786","14","72004","Bree","1982-07-17","1982001074","4116786","6498307447","Bree","5.59793589182479","51.1660006191606"
"FALSE","FALSE","Oud Kanaal Bree-Beek?","Oud Kanaal",NA,NA,"YES","I_3960_3",NA,NA,"EcoWater","Lentisch",NA,"Limburg","Bree","3960",NA,NA,NA,"Thijs Koen",NA,"recreatie.lim.anb@vlaanderen.be","65","786","14","72004","Bree","1982-07-17","1982001074","4116786","6498307447","Bree","5.59544999358405","51.1638837928154"
"FALSE","FALSE","Oud Kanaal, Dilsen?","Oud Kanaal",NA,NA,"YES","I_3960_4",NA,NA,"EcoWater","Lentisch",NA,"Limburg","Bree","3960",NA,NA,NA,"Thijs Koen",NA,"recreatie.lim.anb@vlaanderen.be","65","786","14","72004","Bree","1982-07-17","1982001074","4116786","6498307447","Bree","5.60110809357939","51.1635941928163"
"FALSE","FALSE","Hechtel-Eksel; Weyerbrugstraat; 500m afw mtp 262600","Grote Nete","yjvinjli",NA,"YES","I_3941_1",NA,NA,"VMM_Mtp","Lotisch",NA,"Limburg","Hechtel-Eksel","3941","2","8501",NA,"Limburg",NA,"christel.bouchet@limburg.be","68","787","15","72038","Hechtel-Eksel","1976-01-23","1975123003","4458363","7667768579","Hechtel-Eksel","5.33789639569645","51.1542373025465"
"FALSE","FALSE",NA,"Grote Nete","mwnhmtq1","TBD","YES","I_3940_1","TE ONDIEP!",NA,NA,NA,NA,"Limburg","Hechtel-Eksel","3940","NA","NA",NA,NA,NA,NA,"68","787","15","72038","Hechtel-Eksel","1976-01-23","1975123003","4458363","7667768579","Hechtel-Eksel","5.37796039568417","51.134146402557"
"FALSE","FALSE","Varendonk; Blaardonk-Trichelhoek, opw. brug","Grote Laak",NA,NA,"YES","I_2431_1",NA,NA,"VMM_Mtp","Lotisch",NA,"Antwerpen","Laakdal","2431","1","8503",NA,"VMM",NA,"d.slootmaekers@vmm.be","74","792","156","13053","Laakdal","1976-01-23","1975123003","4293253","424305923","Laakdal","4.9556965068908","51.0870574720006"
"FALSE","FALSE","Laakdal; Zammel; Blaardonk/Trichelhoek; opw brug mtp 324950","Grote Laak",NA,NA,"YES","I_2431_2",NA,NA,"VMM_Mtp","Lotisch",NA,"Antwerpen","Laakdal","2431","1","8503",NA,"VMM",NA,"d.slootmaekers@vmm.be","74","792","156","13053","Laakdal","1976-01-23","1975123003","4293253","424305923","Laakdal","4.95573909656686","51.0870392814766"
"FALSE","FALSE","Laakdal; Vorst; Rauwstraat; einde zandpad","Grote Laak",NA,NA,"YES","I_2431_3",NA,NA,"VMM_Mtp","Lotisch",NA,"Antwerpen","Laakdal","2431","1","8503",NA,"VMM",NA,"d.slootmaekers@vmm.be","74","792","156","13053","Laakdal","1976-01-23","1975123003","4293253","424305923","Laakdal","5.00323519577245","51.0762576025308"
"FALSE","FALSE","Zepperen,Terwouwenstr (N767), schuin tov huis nr 37 Shell Gaz, afw weg","Bergbeek",NA,NA,"YES","I_3800_1",NA,NA,"VMM_Mtp","Lotisch",NA,"Limburg","Sint-Truiden","3800","2","7276",NA,"Limburg",NA,"christel.bouchet@limburg.be","100","804","47","71053","Sint-Truiden","1982-07-17","1982001074","685572","10711873435","Sint-Truiden","5.26310177861795","50.8293896986545"
"FALSE","FALSE","Zepperen  Terstok, Keelstr/Stokstr, opw weg","Logebeek",NA,NA,"YES","I_3800_2",NA,NA,"VMM_Mtp","Lotisch",NA,"Limburg","Sint-Truiden","3800","2","7858",NA,"Limburg",NA,"christel.bouchet@limburg.be","100","804","47","71053","Sint-Truiden","1982-07-17","1982001074","685572","10711873435","Sint-Truiden","5.23967851974073","50.8400397221158"
"FALSE","FALSE","Sint-Truiden","Watering van Sint-Truiden",NA,NA,"YES","I_3800_3",NA,NA,"Scheers","Lentisch",NA,"Limburg","Sint-Truiden","3800",NA,NA,NA,NA,NA,NA,"100","804","47","71053","Sint-Truiden","1982-07-17","1982001074","685572","10711873435","Sint-Truiden","5.19013049374743","50.823691692971"
"FALSE","FALSE","Helchteren, Sonnisweg, 50 m voor verboden ingang ""Militair domein"", opw weg en zijgrachtjes","Schansbeek",NA,NA,"YES","I_3530_1",NA,NA,"VMM_Mtp","Lotisch",NA,"Limburg","Houthalen-Helchteren","3530","2","7260",NA,"Limburg",NA,"christel.bouchet@limburg.be","106","808","22","72039","Houthalen-Helchteren","1976-01-23","1975123003","436867","7822865567","Houthalen-Helchteren","5.42222181390192","51.0600757906201"
"FALSE","FALSE",NA,"De Plas",NA,NA,"YES","I_3530_2",NA,NA,"ANB_Mtp","Lentisch",NA,"Limburg","Houthalen-Helchteren","3530",NA,NA,NA,"Thijs Koen",NA,"recreatie.lim.anb@vlaanderen.be","106","808","22","72039","Houthalen-Helchteren","1976-01-23","1975123003","436867","7822865567","Houthalen-Helchteren","5.42479167222365","51.0317436686929"
"FALSE","FALSE","recreation area, recreatiedomein De Plas (ANB?)","De Plas",NA,NA,"YES","I_3530_3",NA,NA,"Scheers","Lentisch",NA,"Limburg","Houthalen-Helchteren","3530",NA,NA,NA,"Thijs Koen",NA,"recreatie.lim.anb@vlaanderen.be","106","808","22","72039","Houthalen-Helchteren","1976-01-23","1975123003","436867","7822865567","Houthalen-Helchteren","5.42196219412816","51.0330312929295"
"FALSE","FALSE","Aarsele, Snephoekstraat, thv spoorweg, afw samenvl zijbeek","Speibeek",NA,NA,"YES","I_8700_1",NA,NA,"VMM_Mtp","Lotisch",NA,"West-Vlaanderen","Tielt","8700","2","4824",NA,"West-Vlaanderen",NA,NA,"122","817","181","37015","Tielt","1976-01-23","1975123003","455429","6885120853","Tielt","3.38362533549132","50.9879693858141"
"FALSE","FALSE","Schuiferskapelle,Rijkegemkouterstraat,opw weg","Kapellebeek",NA,NA,"YES","I_8700_2",NA,NA,"VMM_Mtp","Lotisch",NA,"West-Vlaanderen","Tielt","8700","2","169",NA,"West-Vlaanderen",NA,NA,"122","817","181","37015","Tielt","1976-01-23","1975123003","455429","6885120853","Tielt","3.35424099617203","51.0314287023616"
"FALSE","FALSE",NA,"Speibeek",NA,NA,"YES","I_8700_3",NA,NA,"VMM_Mtp","Lotisch",NA,"West-Vlaanderen","Tielt","8700","2","4824",NA,"West-Vlaanderen",NA,NA,"122","817","181","37015","Tielt","1976-01-23","1975123003","455429","6885120853","Tielt","3.3997017961562","50.9835627023801"
"FALSE","FALSE","Tielt","Poekebeek",NA,NA,"YES","I_8700_4",NA,NA,"Scheers","Lentisch",NA,"West-Vlaanderen","Tielt","8700",NA,NA,NA,NA,NA,NA,"122","817","181","37015","Tielt","1976-01-23","1975123003","455429","6885120853","Tielt","3.32186219533113","51.0033549929324"
"FALSE","FALSE","Boereweg","Zuiddambeek",NA,NA,"YES","I_8730_1",NA,NA,"VMM_Mtp","Lotisch",NA,"West-Vlaanderen","Beernem","8730","2","1170",NA,"Oostkustpolder","050/333271","waterbeheer@oostkustpolder.be","133","822","116","31003","Beernem","1982-12-29","1982001920","461606","7242322727","Beernem","3.31813251097539","51.1571300359919"
"FALSE","FALSE","Hoornstraat","Biezemoerbeek","otg3mza0",NA,"YES","I_8730_2",NA,NA,"VMM_Mtp","Lotisch",NA,"West-Vlaanderen","Beernem","8730","2","1118",NA,"West-Vlaanderen",NA,NA,"133","822","116","31003","Beernem","1982-12-29","1982001920","461606","7242322727","Beernem","3.34999889618486","51.1465229023287"
"FALSE","FALSE","Assebroek, Looweideweg","St. Trudoledeken","mdjjotdj","29/06/2024","YES","I_8730_3","waterpeil te laag!",NA,"VMM_Mtp","Lotisch",NA,"West-Vlaanderen","Beernem","8730","2","2616",NA,"Oostkustpolder","050/333271","waterbeheer@oostkustpolder.be","133","822","116","31003","Beernem","1982-12-29","1982001920","461606","7242322727","Beernem","3.28779329620418","51.1900815023099"
"TRUE","TRUE","Prov. Domein Lippensgoed-Bulskampveld, perceel 25Y",NA,"mdixota5","22/07/24","YES","I_8730_5",NA,NA,"ANB_Mtp","Lentisch",NA,"West-Vlaanderen","Beernem","8730",NA,NA,NA,"Meulebrouck Klaar",NA,"recreatie.wvl.anb@vlaanderen.be","133","822","116","31003","Beernem","1982-12-29","1982001920","461606","7242322727","Beernem","3.29024289619531","51.1090414023329"
"FALSE","FALSE","Prov. Domein Lippensgoed, Bulskampveld, eendeputten","Aanwijsputten","ndmzyjhh",NA,"YES","I_8730_6",NA,NA,"ANB_Mtp","Lentisch",NA,"West-Vlaanderen","Beernem","8730",NA,NA,NA,"Meulebrouck Klaar",NA,"recreatie.wvl.anb@vlaanderen.be","133","822","116","31003","Beernem","1982-12-29","1982001920","461606","7242322727","Beernem","3.30755119619121","51.1094265023346"
"FALSE","FALSE","Prov. Domein Lippensgoed, Bulskampveld, eendeputten",NA,NA,NA,"YES","I_8730_7",NA,NA,"ANB_Mtp","Lentisch",NA,"West-Vlaanderen","Beernem","8730",NA,NA,NA,"Meulebrouck Klaar",NA,"recreatie.wvl.anb@vlaanderen.be","133","822","116","31003","Beernem","1982-12-29","1982001920","461606","7242322727","Beernem","3.30790914172822","51.1100140820547"
"FALSE","FALSE","Prov. Domein Lippensgoed, Bulskampveld, eendeputten",NA,NA,NA,"YES","I_8730_8",NA,NA,"ANB_Mtp","Lentisch",NA,"West-Vlaanderen","Beernem","8730",NA,NA,NA,"Meulebrouck Klaar",NA,"recreatie.wvl.anb@vlaanderen.be","133","822","116","31003","Beernem","1982-12-29","1982001920","461606","7242322727","Beernem","3.30774740017744","51.1108486680288"
"FALSE","FALSE",NA,NA,"mdjjotdj","01/07/2024","YES","I_8730_9",NA,NA,NA,NA,NA,"West-Vlaanderen","Beernem","8730",NA,NA,NA,NA,NA,NA,"133","822","116","31003","Beernem","1982-12-29","1982001920","461606","7242322727","Beernem","3.29197519619846","51.1439286023233"
"FALSE","FALSE",NA,NA,"ndmzyjhh","TBD","YES","I_8730_10",NA,NA,NA,NA,NA,"West-Vlaanderen","Beernem","8730",NA,NA,NA,NA,NA,NA,"133","822","116","31003","Beernem","1982-12-29","1982001920","461606","7242322727","Beernem","3.29147649619578","51.116513702331"
"TRUE","TRUE",NA,"Kanaal Gent-Brugge","otg3mza0",NA,"NO","V_8730_11",NA,NA,NA,NA,NA,"West-Vlaanderen","Beernem","8730",NA,NA,NA,NA,NA,NA,"133","822","116","31003","Beernem","1982-12-29","1982001920","461606","7242322727","Beernem","3.33065629618858","51.1376902023291"
"FALSE","FALSE","Kruiskerkestraat,opw weg","Wantebeek",NA,NA,"YES","I_8755_1",NA,NA,"VMM_Mtp","Lotisch",NA,"West-Vlaanderen","Ruiselede","8755","2","293",NA,"West-Vlaanderen",NA,NA,"140","825","164","37012","Ruiselede","1831-02-07",NA,"3359342","3062306361","Ruiselede","3.38679599758748","51.0651014277752"
"FALSE","FALSE","Vorte Bossen,Kruisbergstraat","Wantebeek",NA,NA,"YES","I_8755_2",NA,NA,"VMM_Mtp","Lotisch",NA,"West-Vlaanderen","Ruiselede","8755","2","293",NA,"West-Vlaanderen",NA,NA,"140","825","164","37012","Ruiselede","1831-02-07",NA,"3359342","3062306361","Ruiselede","3.37355280238456","51.0766769974133"
"FALSE","FALSE","Knokmolen,Knokstraat,opw weg","Poekebeek",NA,NA,"YES","I_8755_3",NA,NA,"VMM_Mtp","Lotisch",NA,"West-Vlaanderen","Ruiselede","8755","2","27",NA,"West-Vlaanderen",NA,NA,"140","825","164","37012","Ruiselede","1831-02-07",NA,"3359342","3062306361","Ruiselede","3.38490421252177","51.0458206877354"
"FALSE","FALSE","Eine,Doorn,Serpentsstraat","Marollebeek",NA,NA,"YES","I_9700_1",NA,NA,"VMM_Mtp","Lotisch",NA,"Oost-Vlaanderen","Oudenaarde","9700","2","5680",NA,"Oost-Vlaanderen",NA,"waterbeleid@oost-vlaanderen.be","144","828","258","45035","Oudenaarde","1976-01-23","1975123003","571654","689202487","Oudenaarde","3.60579301669608","50.8721764707507"
"FALSE","FALSE","Melden,Meersbloem Leupegem-Meersbloem Melden,afwaarts brug","Maarkebeek",NA,NA,"YES","I_9700_2",NA,NA,"VMM_Mtp","Lotisch",NA,"Oost-Vlaanderen","Oudenaarde","9700","1","5003",NA,"VMM",NA,"d.slootmaekers@vmm.be","144","828","258","45035","Oudenaarde","1976-01-23","1975123003","571654","689202487","Oudenaarde","3.59386957355949","50.8327042870617"
"FALSE","FALSE","Melden,Heilbroek,langs veldweg","Molenbeek","zgrhnjvm",NA,"YES","I_9700_3",NA,NA,"VMM_Mtp","Lotisch",NA,"Oost-Vlaanderen","Oudenaarde","9700","2","5294",NA,"Oost-Vlaanderen",NA,"waterbeleid@oost-vlaanderen.be","144","828","258","45035","Oudenaarde","1976-01-23","1975123003","571654","689202487","Oudenaarde","3.5572036960998","50.8054142024479"
"FALSE","FALSE","Melden,Meersbloem, Leupegem-Meersbloem, meest stroomafwaartse brugje","Maarkebeek",NA,NA,"YES","I_9700_4",NA,NA,"VMM_Mtp","Lotisch",NA,"Oost-Vlaanderen","Oudenaarde","9700","1","5003",NA,"VMM",NA,"d.slootmaekers@vmm.be","144","828","258","45035","Oudenaarde","1976-01-23","1975123003","571654","689202487","Oudenaarde","3.5939420251569","50.8326148650956"
"FALSE","FALSE","Oudenaarde, brugje Wolfabriekstraat","Maarkebeek",NA,NA,"YES","I_9700_5",NA,NA,"VMM_Mtp","Lotisch",NA,"Oost-Vlaanderen","Oudenaarde","9700","1","5003",NA,"VMM",NA,"d.slootmaekers@vmm.be","144","828","258","45035","Oudenaarde","1976-01-23","1975123003","571654","689202487","Oudenaarde","3.60228437349375","50.8276801823435"
"FALSE","FALSE","Melden, Schaatsputte, Veldweg","Beiaardbeek",NA,NA,"YES","I_9700_7",NA,NA,"VMM_Mtp","Lotisch",NA,"Oost-Vlaanderen","Oudenaarde","9700","2","5002",NA,"Oost-Vlaanderen",NA,"waterbeleid@oost-vlaanderen.be","144","828","258","45035","Oudenaarde","1976-01-23","1975123003","571654","689202487","Oudenaarde","3.56450440711991","50.8099145770855"
"FALSE","FALSE","Melden, Bunderbos, opw weg","Beiaardbeek",NA,NA,"YES","I_9700_8",NA,NA,"VMM_Mtp","Lotisch",NA,"Oost-Vlaanderen","Oudenaarde","9700","2","5002",NA,"Oost-Vlaanderen",NA,"waterbeleid@oost-vlaanderen.be","144","828","258","45035","Oudenaarde","1976-01-23","1975123003","571654","689202487","Oudenaarde","3.56113982904781","50.807536041752"
"FALSE","FALSE","Oude Schelde Heurne-Heuvel","Oude Schelde Heurne",NA,NA,"YES","I_9700_9",NA,NA,"EcoWater","Lentisch",NA,"Oost-Vlaanderen","Oudenaarde","9700",NA,NA,NA,NA,NA,NA,"144","828","258","45035","Oudenaarde","1976-01-23","1975123003","571654","689202487","Oudenaarde","3.63902839498662","50.8839606927588"
"FALSE","FALSE","Oude Schelde Nederename?","Oude Schelde Eine",NA,NA,"YES","I_9700_10",NA,NA,"EcoWater","Lentisch",NA,"Oost-Vlaanderen","Oudenaarde","9700",NA,NA,NA,NA,NA,NA,"144","828","258","45035","Oudenaarde","1976-01-23","1975123003","571654","689202487","Oudenaarde","3.63185449498367","50.8663304927685"
"FALSE","FALSE","Oude Schelde De Sterre","Oude Schelde Heurne",NA,NA,"YES","I_9700_11",NA,NA,"EcoWater","Lentisch",NA,"Oost-Vlaanderen","Oudenaarde","9700",NA,NA,NA,NA,NA,NA,"144","828","258","45035","Oudenaarde","1976-01-23","1975123003","571654","689202487","Oudenaarde","3.62792919499316","50.8797968927601"
"FALSE","FALSE","Oude Schelde Melden Het Veer",NA,NA,NA,"YES","I_9700_12",NA,NA,"EcoWater","Lentisch",NA,"Oost-Vlaanderen","Oudenaarde","9700",NA,NA,NA,"Coppens Xavier",NA,"recreatie.ovl.anb@vlaanderen.be","144","828","258","45035","Oudenaarde","1976-01-23","1975123003","571654","689202487","Oudenaarde","3.5754814950048","50.8202020927899"
"FALSE","FALSE","Melden, afw Berchemweg, 2de zijarm",NA,NA,NA,"YES","I_9700_13",NA,NA,"ANB_Mtp","Lentisch",NA,"Oost-Vlaanderen","Oudenaarde","9700",NA,NA,NA,"Coppens Xavier",NA,"recreatie.ovl.anb@vlaanderen.be","144","828","258","45035","Oudenaarde","1976-01-23","1975123003","571654","689202487","Oudenaarde","3.56918249937522","50.8185231293302"
"FALSE","FALSE","Melden, Berchemweg,centraal gedeelte",NA,"zgrhnjvm",NA,"YES","I_9700_14",NA,NA,"ANB_Mtp","Lentisch",NA,"Oost-Vlaanderen","Oudenaarde","9700",NA,NA,NA,"Coppens Xavier",NA,"recreatie.ovl.anb@vlaanderen.be","144","828","258","45035","Oudenaarde","1976-01-23","1975123003","571654","689202487","Oudenaarde","3.57404599609718","50.8192876024458"
"FALSE","FALSE","recreation area, Provincial dom. Donk, Oudenaarde","Donkmeer",NA,NA,"YES","I_9700_15",NA,NA,"Scheers","Lentisch",NA,"Oost-Vlaanderen","Oudenaarde","9700",NA,NA,NA,NA,NA,NA,"144","828","258","45035","Oudenaarde","1976-01-23","1975123003","571654","689202487","Oudenaarde","3.5846615948375","50.8430034926976"
"FALSE","FALSE","Oudenaarde",NA,NA,NA,"YES","I_9700_16",NA,NA,"Scheers","Lentisch",NA,"Oost-Vlaanderen","Oudenaarde","9700",NA,NA,NA,NA,NA,NA,"144","828","258","45035","Oudenaarde","1976-01-23","1975123003","571654","689202487","Oudenaarde","3.60689029437884","50.8466105931419"
"FALSE","FALSE","Oudenaarde",NA,NA,NA,"YES","I_9700_17",NA,NA,"Scheers","Lentisch",NA,"Oost-Vlaanderen","Oudenaarde","9700",NA,NA,NA,NA,NA,NA,"144","828","258","45035","Oudenaarde","1976-01-23","1975123003","571654","689202487","Oudenaarde","3.60894309507694","50.8458755928056"
"FALSE","FALSE","Oostnieuwkerke, Wallebrugstraat","Mandel",NA,NA,"YES","I_8840_1",NA,NA,"VMM_Mtp","Lotisch",NA,"West-Vlaanderen","Staden","8840","2","4203",NA,"West-Vlaanderen",NA,NA,"146","830","206","36019","Staden","1982-12-29","1982001920","3552409","4681548093","Staden","3.06449906265124","50.9472671107987"
"FALSE","FALSE","Oostnieuwkerke, Cortonstraat","Mandel",NA,NA,"YES","I_8840_2",NA,NA,"VMM_Mtp","Lotisch",NA,"West-Vlaanderen","Staden","8840","2","4203",NA,"West-Vlaanderen",NA,NA,"146","830","206","36019","Staden","1982-12-29","1982001920","3552409","4681548093","Staden","3.04516696265431","50.9272625574135"
"FALSE","FALSE","Westrozebeke, Vijverbos","Vijverbeek",NA,NA,"YES","I_8840_3",NA,NA,"VMM_Mtp","Lotisch",NA,"West-Vlaanderen","Staden","8840","2","4335",NA,"Dewulf Evy",NA,"recreatie.wvl.anb@vlaanderen.be","146","830","206","36019","Staden","1982-12-29","1982001920","3552409","4681548093","Staden","3.02459187930195","50.9338710309187"
"FALSE","FALSE","Oostnieuwkerke","Mandel",NA,NA,"YES","I_8840_4",NA,NA,"VMM_Mtp","Lotisch",NA,"West-Vlaanderen","Staden","8840","2","4203",NA,"West-Vlaanderen",NA,NA,"146","830","206","36019","Staden","1982-12-29","1982001920","3552409","4681548093","Staden","3.08332329261554","50.9541903606612"
"TRUE","TRUE","Oostenieuwkerke","Mandel","yze3nzdi",NA,"YES","I_8840_5",NA,NA,"VMM_Mtp","Lotisch",NA,"West-Vlaanderen","Staden","8840","2","4203",NA,"West-Vlaanderen",NA,NA,"146","830","206","36019","Staden","1982-12-29","1982001920","3552409","4681548093","Staden","3.0514924","50.93524"
"FALSE","FALSE",NA,"Zarrenbeek",NA,NA,"YES","I_8840_6",NA,NA,"VMM_Mtp","Lotisch",NA,"West-Vlaanderen","Staden","8840","2","1496",NA,"West-Vlaanderen",NA,NA,"146","830","206","36019","Staden","1982-12-29","1982001920","3552409","4681548093","Staden","3.01126064793248","50.9938746301712"
"FALSE","FALSE","Merkem, Ketsedijk","Martjevaart",NA,NA,"YES","I_8650_1",NA,NA,"VMM_Mtp","Lotisch",NA,"West-Vlaanderen","Houthulst","8650","1","1216",NA,"VMM",NA,"d.slootmaekers@vmm.be","155","839","203","32006","Houthulst","1982-12-29","1982001920","4145773","5602185125","Houthulst","2.83331896424535","50.9552018887628"
"FALSE","FALSE","Merkem, Ketsedijk","Martjevaart",NA,NA,"YES","I_8650_2",NA,NA,"VMM_Mtp","Lotisch",NA,"West-Vlaanderen","Houthulst","8650","1","1216",NA,"VMM",NA,"d.slootmaekers@vmm.be","155","839","203","32006","Houthulst","1982-12-29","1982001920","4145773","5602185125","Houthulst","2.82952413907865","50.9563211287257"
"FALSE","FALSE",NA,NA,NA,NA,"YES","I_8650_3",NA,NA,NA,"Lotisch",NA,"West-Vlaanderen","Houthulst","8650",NA,NA,NA,NA,NA,NA,"155","839","203","32006","Houthulst","1982-12-29","1982001920","4145773","5602185125","Houthulst","2.81989477308618","50.962966580813"
"FALSE","FALSE","Kortenaken/Kersbeek-Miskom, Bauwelstr, 10m opw brug","Velpe",NA,NA,"YES","I_3470_1",NA,NA,"VMM_Mtp","Lotisch",NA,"Vlaams-Brabant","Kortenaken","3470","1","7155",NA,"VMM",NA,"d.slootmaekers@vmm.be","159","842","39","24054","Kortenaken","1976-01-23","1975123003","4226626","4943768838","Kortenaken","5.0343933404972","50.8954866265712"
"FALSE","FALSE","Tisselt; Jozef de Blockstraat, naast huisnr 52 straatje in, over brugje en zandpad in","Birrebeek",NA,NA,"YES","I_2830_1","bij voorkeur tussen 20/07 - 01/09",NA,"VMM_Mtp","Lotisch",NA,"Antwerpen","Willebroek","2830","2","3106",NA,"Polder Vliet en Zielbeek","03/8892337","poldervliet.en.zielbeek@edpnet.be","164","844","172","12040","Willebroek","1976-01-23","1975123003","310392","2736618675","Willebroek","4.35387016121639","51.038695607074"
"FALSE","FALSE",NA,"Grootbroekloop",NA,NA,"YES","I_2830_2","bij voorkeur tussen 20/07 - 01/09",NA,NA,"Lotisch",NA,"Antwerpen","Willebroek","2830","2","0",NA,"Polder Willebroek","03/8996317","polderwillebroek@vvpw.be","164","844","172","12040","Willebroek","1976-01-23","1975123003","310392","2736618675","Willebroek","4.39225458436622","51.0576495594563"
"FALSE","FALSE","Het Broek, Blaasveld",NA,NA,NA,"YES","I_2830_3",NA,NA,"EcoWater","Lentisch",NA,"Antwerpen","Willebroek","2830",NA,NA,NA,"Heyens Veerle",NA,"recreatie.ant.anb@vlaanderen.be","164","844","172","12040","Willebroek","1976-01-23","1975123003","310392","2736618675","Willebroek","4.38440789449275","51.0590380927345"
"FALSE","FALSE","Blaasveld, Broekweg, thv. restaurant  Fonteyntje brug tss 2 vijvers, rechtervijver","Putten van Lacourt",NA,NA,"YES","I_2830_4",NA,NA,"ANB_Mtp","Lentisch",NA,"Antwerpen","Willebroek","2830",NA,NA,NA,"Heyens Veerle",NA,"recreatie.ant.anb@vlaanderen.be","164","844","172","12040","Willebroek","1976-01-23","1975123003","310392","2736618675","Willebroek","4.39330081008364","51.0544064579068"
"FALSE","FALSE","Hazewinkel","Hazewinkel watersportbaan",NA,NA,"YES","I_2830_5",NA,NA,"Scheers","Lentisch",NA,"Antwerpen","Willebroek","2830",NA,NA,NA,NA,NA,NA,"164","844","172","12040","Willebroek","1976-01-23","1975123003","310392","2736618675","Willebroek","4.38993159592384","51.0656574024646"
"FALSE","FALSE",NA,"Zwarte Beek",NA,NA,"YES","I_2830_6",NA,NA,NA,NA,NA,"Antwerpen","Willebroek","2830","NA","NA",NA,NA,NA,NA,"164","844","172","12040","Willebroek","1976-01-23","1975123003","310392","2736618675","Willebroek","4.38069299592669","51.071125002462"
"TRUE","TRUE",NA,NA,"mdm4oge4",NA,"NO","V_2830_7",NA,NA,NA,NA,NA,"Antwerpen","Willebroek","2830",NA,NA,NA,NA,NA,NA,"164","844","172","12040","Willebroek","1976-01-23","1975123003","310392","2736618675","Willebroek","4.37448729592871","51.07576420246"
"FALSE","FALSE","Jesseren, Broekstraat, onverharde weg tussen huisnr. 18-20, 300 m tot einde voetbalveld, 100 m tot Mombeek, via brugje,  50 m opw. tot aan overbrugging","Mombeek",NA,NA,"YES","I_3840_1",NA,NA,"VMM_Mtp","Lotisch",NA,"Limburg","Borgloon","3840","2","7159",NA,"Limburg",NA,"christel.bouchet@limburg.be","166","846","50","73009","Borgloon","1982-07-17","1982001074","4605579","5132233887","Borgloon","5.40331689994255","50.8071886788038"
"FALSE","FALSE","Jesseren, Jesserenstr,opw weg en LP, aan grensbord Jesseren-Borgloon","Sint-Annabeek",NA,NA,"YES","I_3840_2",NA,NA,"VMM_Mtp","Lotisch",NA,"Limburg","Borgloon","3840","2","7526",NA,"Limburg",NA,"christel.bouchet@limburg.be","166","846","50","73009","Borgloon","1982-07-17","1982001074","4605579","5132233887","Borgloon","5.37748819644534","50.8115765982484"
"FALSE","FALSE","Broekom, zijweg Sassenbroekstr, in 2de bocht thv huis nr 7, achteraan privé-oprit, na samenvloeiing","Sassenbroekbeek",NA,NA,"YES","I_3840_3",NA,NA,"VMM_Mtp","Lotisch",NA,"Limburg","Borgloon","3840","2","7768",NA,"Limburg",NA,"christel.bouchet@limburg.be","166","846","50","73009","Borgloon","1982-07-17","1982001074","4605579","5132233887","Borgloon","5.34048498119169","50.7781484921849"
"FALSE","FALSE","Gors-Opleeuw; einde mf-traject 5m afw brug aan mp 451200","Mombeek",NA,NA,"YES","I_3840_4",NA,NA,"VMM_Mtp","Lotisch",NA,"Limburg","Borgloon","3840","2","7159",NA,"Limburg",NA,"christel.bouchet@limburg.be","166","846","50","73009","Borgloon","1982-07-17","1982001074","4605579","5132233887","Borgloon","5.40367271404076","50.8259306423953"
"FALSE","FALSE","Jesseren; Broekstraat; onverharde weg langs voetbalvelden;einde traject aan hoek laatste voetbalveld","Mombeek",NA,NA,"YES","I_3840_5",NA,NA,"VMM_Mtp","Lotisch",NA,"Limburg","Borgloon","3840","2","7159",NA,"Limburg",NA,"christel.bouchet@limburg.be","166","846","50","73009","Borgloon","1982-07-17","1982001074","4605579","5132233887","Borgloon","5.40320702593181","50.8079987927003"
"FALSE","FALSE","Eeklose Watergang","Eeklose watergang","zta3nzm0",NA,"YES","I_9900_1",NA,NA,NA,NA,NA,"Oost-Vlaanderen","Eeklo","9900","NA","NA",NA,NA,NA,NA,"169","849","109","43005","Eeklo","1982-12-29","1982001920","2559369","304493745","Eeklo","3.53881689614668","51.2160525023291"
"FALSE","FALSE",NA,"Eeklose Watergang","nwu0njy5",NA,"YES","I_9900_2",NA,NA,NA,NA,NA,"Oost-Vlaanderen","Eeklo","9900","NA","NA",NA,NA,NA,NA,"169","849","109","43005","Eeklo","1982-12-29","1982001920","2559369","304493745","Eeklo","3.58633899613457","51.209412002336"
"FALSE","FALSE","Peulis, Mechelbaan (N15), doodlopend zijwegje, inrit huis nr 664, 3 m opw brugje+lozing","Waversebeek",NA,NA,"YES","I_2580_1","bij voorkeur tussen 20/07 - 01/09",NA,"VMM_Mtp","Lotisch",NA,"Antwerpen","Putte","2580","2","6702",NA,"Antwerpen",NA,"hans.vanloy@provincieantwerpen.be","176","852","171","12029","Putte","1976-01-23","1975123003","40300","3515873126","Putte","4.59070551799696","51.0392320972805"
"FALSE","FALSE","33/3-4;Guighoven; Kasteelstraat; einde traject afw brug; 20m afw verval","Mombeek",NA,NA,"YES","I_3724_1",NA,NA,"VMM_Mtp","Lotisch",NA,"Limburg","Kortessem","3724","2","7159",NA,"Limburg",NA,"christel.bouchet@limburg.be","181","854","45","73040","Kortessem","1982-07-17","1982001074","3317968","3398700899","Kortessem","5.41160845140768","50.8387705295062"
"FALSE","FALSE","Lampernisse, Zadelstraat","Oostkerkevaart",NA,NA,"YES","I_8600_1",NA,NA,"VMM_Mtp","Lotisch",NA,"West-Vlaanderen","Diksmuide","8600","2","1285",NA,"Westkustpolder","058/314653","info@westkustpolder.be","185","856","153","32003","Diksmuide","1976-01-23","1975123003","6380216","15073875943","Diksmuide","2.76277671091204","51.0339667705252"
"FALSE","FALSE","Esen, Vladslostraat, afw","Handzamevaart",NA,NA,"YES","I_8600_2",NA,NA,"VMM_Mtp","Lotisch",NA,"West-Vlaanderen","Diksmuide","8600","1","1208",NA,"VMM",NA,"d.slootmaekers@vmm.be","185","856","153","32003","Diksmuide","1976-01-23","1975123003","6380216","15073875943","Diksmuide","2.90772740143193","51.0365100640425"
"TRUE","TRUE","Vladslo, Einsdijkstraat, br. Eindsdijk-Esenbroek","Handzamevaart","mgeyodcw",NA,"YES","I_8600_3",NA,NA,"VMM_Mtp","Lotisch",NA,"West-Vlaanderen","Diksmuide","8600","1","1208",NA,"VMM",NA,"d.slootmaekers@vmm.be","185","856","153","32003","Diksmuide","1976-01-23","1975123003","6380216","15073875943","Diksmuide","2.9266385","51.0345673"
"FALSE","FALSE","Woumen, Noordbroekstraat, Rillebroek, afw","Stenensluisvaart",NA,NA,"YES","I_8600_4",NA,NA,"VMM_Mtp","Lotisch",NA,"West-Vlaanderen","Diksmuide","8600","1","1379",NA,"VMM",NA,"d.slootmaekers@vmm.be","185","856","153","32003","Diksmuide","1976-01-23","1975123003","6380216","15073875943","Diksmuide","2.83668458193158","50.9946806747062"
"FALSE","FALSE","Woumen, Rapestraat","Stenensluisvaart",NA,"TBD","YES","I_8600_5",NA,NA,"VMM_Mtp","Lotisch",NA,"West-Vlaanderen","Diksmuide","8600","1","1379",NA,"VMM",NA,"d.slootmaekers@vmm.be","185","856","153","32003","Diksmuide","1976-01-23","1975123003","6380216","15073875943","Diksmuide","2.82926659629374","51.0006079023151"
"TRUE","TRUE","Woumen, Noordbroekstraat, Rillebroek","Stenensluisvaart","nwm0ndcy",NA,"YES","I_8600_6",NA,NA,"VMM_Mtp","Lotisch",NA,"West-Vlaanderen","Diksmuide","8600","1","1379",NA,"VMM",NA,"d.slootmaekers@vmm.be","185","856","153","32003","Diksmuide","1976-01-23","1975123003","6380216","15073875943","Diksmuide","2.8351357","50.9949932"
"TRUE","TRUE","Woumen, Noordbroekstraat, Rillebroek","Noordkantvaart","nwm0ndcy",NA,"YES","I_8600_7",NA,NA,"VMM_Mtp","Lotisch",NA,"West-Vlaanderen","Diksmuide","8600","1","2083",NA,"VMM",NA,"d.slootmaekers@vmm.be","185","856","153","32003","Diksmuide","1976-01-23","1975123003","6380216","15073875943","Diksmuide","2.8462363","51.0004986"
"TRUE","TRUE",NA,"Ijzer","nwm0ndcy","TBD","YES","I_8600_8",NA,NA,NA,"Lotisch",NA,"West-Vlaanderen","Diksmuide","8600",NA,NA,NA,NA,NA,NA,"185","856","153","32003","Diksmuide","1976-01-23","1975123003","6380216","15073875943","Diksmuide","2.8136319","50.9882039"
"FALSE","FALSE",NA,NA,"mwzkzmy1","08/07/2024","YES","I_8600_9",NA,NA,NA,"Lotisch",NA,"West-Vlaanderen","Diksmuide","8600",NA,NA,NA,NA,NA,NA,"185","856","153","32003","Diksmuide","1976-01-23","1975123003","6380216","15073875943","Diksmuide","2.8366285962997","51.0763340022947"
"FALSE","FALSE",NA,NA,NA,NA,"YES","I_8600_10",NA,NA,NA,"Lotisch",NA,"West-Vlaanderen","Diksmuide","8600",NA,NA,NA,NA,NA,NA,"185","856","153","32003","Diksmuide","1976-01-23","1975123003","6380216","15073875943","Diksmuide","2.82048467053015","51.1023186042592"
"FALSE","FALSE","Woumen, Kasteelvijver","De Blankaart",NA,NA,"YES","I_8600_11",NA,NA,"ANB_Mtp","Lentisch",NA,"West-Vlaanderen","Diksmuide","8600",NA,NA,NA,"Dewulf Evy",NA,"recreatie.wvl.anb@vlaanderen.be","185","856","153","32003","Diksmuide","1976-01-23","1975123003","6380216","15073875943","Diksmuide","2.8674020014049","50.9833439789916"
"TRUE","TRUE","Diksmuide",NA,"mgeyodcw",NA,"YES","I_8600_12",NA,NA,"Scheers","Lentisch",NA,"West-Vlaanderen","Diksmuide","8600",NA,NA,NA,NA,NA,NA,"185","856","153","32003","Diksmuide","1976-01-23","1975123003","6380216","15073875943","Diksmuide","2.8680722","51.0347191"
"FALSE","FALSE",NA,"Put van Nieuwkapelle",NA,NA,"YES","I_8600_13","niet nuttig",NA,"Scheers","Lentisch",NA,"West-Vlaanderen","Diksmuide","8600",NA,NA,NA,NA,NA,NA,"185","856","153","32003","Diksmuide","1976-01-23","1975123003","6380216","15073875943","Diksmuide","2.8016198","50.991776"
"TRUE","TRUE",NA,"mgeyodcw",NA,NA,"YES","I_8600_14",NA,NA,NA,NA,NA,"West-Vlaanderen","Diksmuide","8600","NA","NA",NA,NA,NA,NA,"185","856","153","32003","Diksmuide","1976-01-23","1975123003","6380216","15073875943","Diksmuide","2.8734323","51.0566341"
"FALSE","FALSE",NA,"Stjacobsleed","nznmytqy",NA,"YES","I_8600_15",NA,NA,NA,NA,NA,"West-Vlaanderen","Diksmuide","8600","NA","NA",NA,NA,NA,NA,"185","856","153","32003","Diksmuide","1976-01-23","1975123003","6380216","15073875943","Diksmuide","2.82446239629753","51.0266808023073"
"FALSE","FALSE",NA,"Grote Beverdijkvaart","zmu2zji1","09/24","YES","I_8600_16",NA,NA,NA,NA,NA,"West-Vlaanderen","Diksmuide","8600","NA","NA",NA,NA,NA,NA,"185","856","153","32003","Diksmuide","1976-01-23","1975123003","6380216","15073875943","Diksmuide","2.80638899630718","51.0797500022906"
"FALSE","FALSE",NA,"Oude A-vaart","zmu2zji1","09/24","YES","I_8600_17",NA,NA,NA,NA,NA,"West-Vlaanderen","Diksmuide","8600",NA,NA,NA,NA,NA,NA,"185","856","153","32003","Diksmuide","1976-01-23","1975123003","6380216","15073875943","Diksmuide","2.7697819963152","51.0738060022884"
"FALSE","FALSE","Moregem + Ooike,Pareel,Pareelstraat,afw weg","Volkaartsbeek",NA,NA,"YES","I_9790_1",NA,NA,"VMM_Mtp","Lotisch",NA,"Oost-Vlaanderen","Wortegem-Petegem","9790","2","5528",NA,"Oost-Vlaanderen",NA,"waterbeleid@oost-vlaanderen.be","193","861","266","45061","Wortegem-Petegem","1976-01-23","1975123003","4107106","4247251806","Wortegem-Petegem","3.54595582739233","50.8507088738667"
"FALSE","FALSE","Oude Schelde Elsegem","Oude Schelde Wortegem-Petegem","zgrhnjvm",NA,"YES","I_9790_2",NA,NA,"EcoWater","Lentisch",NA,"Oost-Vlaanderen","Wortegem-Petegem","9790",NA,NA,NA,"Coppens Xavier",NA,"recreatie.ovl.anb@vlaanderen.be","193","861","266","45061","Wortegem-Petegem","1976-01-23","1975123003","4107106","4247251806","Wortegem-Petegem","3.54966449610348","50.823190102442"
"FALSE","FALSE","Elsegem, Scheldestraat,Het Anker","Oude Schelde Wortegem-Petegem",NA,NA,"YES","I_9790_3",NA,NA,"ANB_Mtp","Lentisch",NA,"Oost-Vlaanderen","Wortegem-Petegem","9790","0","0",NA,"Coppens Xavier",NA,"recreatie.ovl.anb@vlaanderen.be","193","861","266","45061","Wortegem-Petegem","1976-01-23","1975123003","4107106","4247251806","Wortegem-Petegem","3.55117438764722","50.8233615501588"
"FALSE","FALSE","Budingen, Leeuwerstr (betonnen fietspad), opw brug","Kleine Gete",NA,NA,"YES","I_3440_1",NA,NA,"VMM_Mtp","Lotisch",NA,"Vlaams-Brabant","Zoutleeuw","3440","1","7161",NA,"VMM",NA,"d.slootmaekers@vmm.be","197","862","46","24130","Zoutleeuw","1982-12-29","1982001920","4558438","4684508475","Zoutleeuw","5.10886677875896","50.855098259255"
"FALSE","FALSE","Budingen,aarden zijweg Molenstr thv hoek Steengrachtstr, opw brug","Grote Gete",NA,NA,"YES","I_3440_2",NA,NA,"VMM_Mtp","Lotisch",NA,"Vlaams-Brabant","Zoutleeuw","3440","1","7153",NA,"VMM",NA,"d.slootmaekers@vmm.be","197","862","46","24130","Zoutleeuw","1982-12-29","1982001920","4558438","4684508475","Zoutleeuw","5.09265171255261","50.8544533798014"
"FALSE","FALSE","Zoutleeuw, Koepoortstr, Molenbeek, opw brug","Dormaalbeek",NA,NA,"YES","I_3440_3",NA,NA,"VMM_Mtp","Lotisch",NA,"Vlaams-Brabant","Zoutleeuw","3440","1","7160",NA,"VMM",NA,"d.slootmaekers@vmm.be","197","862","46","24130","Zoutleeuw","1982-12-29","1982001920","4558438","4684508475","Zoutleeuw","5.09621546814181","50.8250521196272"
"FALSE","FALSE","Budingen, Terweidenstr, afw limnigraaf en brug","Gete",NA,NA,"YES","I_3440_4",NA,NA,"VMM_Mtp","Lotisch",NA,"Vlaams-Brabant","Zoutleeuw","3440","1","7162",NA,"VMM",NA,"d.slootmaekers@vmm.be","197","862","46","24130","Zoutleeuw","1982-12-29","1982001920","4558438","4684508475","Zoutleeuw","5.10724466786803","50.8639365982314"
"TRUE","TRUE","aan 430000, opw oude stenen brugje","Kleine Gete","nwi2m2u2","11/07/24","YES","I_3440_5",NA,NA,"VMM_Mtp","Lotisch",NA,"Vlaams-Brabant","Zoutleeuw","3440","2","7161",NA,"Vlaams-Brabant",NA,"ingrid.beuls@vlaamsbrabant.be","197","862","46","24130","Zoutleeuw","1982-12-29","1982001920","4558438","4684508475","Zoutleeuw","5.11138849572072","50.8466138026109"
"TRUE","TRUE","Leeuwerweg, thv kruispunt met landweg, vanaf 2de betonnen brugje","Vloedgracht","nwi2m2u2","11/07/24","YES","I_3440_6",NA,NA,"VMM_Mtp","Lotisch",NA,"Vlaams-Brabant","Zoutleeuw","3440","1","7957",NA,"VMM",NA,"d.slootmaekers@vmm.be","197","862","46","24130","Zoutleeuw","1982-12-29","1982001920","4558438","4684508475","Zoutleeuw","5.10147339572261","50.8409316026114"
"FALSE","FALSE","Zoutleeuw, Koepoortstr, begin traj opw mpl 443000","Dormaalbeek",NA,NA,"YES","I_3440_7",NA,NA,"VMM_Mtp","Lotisch",NA,"Vlaams-Brabant","Zoutleeuw","3440","1","7160",NA,"VMM",NA,"d.slootmaekers@vmm.be","197","862","46","24130","Zoutleeuw","1982-12-29","1982001920","4558438","4684508475","Zoutleeuw","5.09621546814181","50.8250521196272"
"FALSE","FALSE","vijver het Vinne, Zoutleeuw, thv zuidwestelijke punt, via knuppelpad, links in open water, thv dode boom","Vinne",NA,NA,"YES","I_3440_8",NA,NA,"ANB_Mtp","Lentisch",NA,"Vlaams-Brabant","Zoutleeuw","3440",NA,NA,NA,NA,NA,NA,"197","862","46","24130","Zoutleeuw","1982-12-29","1982001920","4558438","4684508475","Zoutleeuw","5.11891939257261","50.8353642775757"
"FALSE","FALSE",NA,"Watering De Kleine Gete","nwi2m2u2","11/07/24","NO","V_3440_9","waterpeil half juli te laag",NA,NA,NA,NA,"Vlaams-Brabant","Zoutleeuw","3440","NA","NA",NA,NA,NA,NA,"197","862","46","24130","Zoutleeuw","1982-12-29","1982001920","4558438","4684508475","Zoutleeuw","5.12136069571737","50.8389004026143"
"FALSE","FALSE","Alken, Meerdegatstr, tss kruising met Expressweg Sint-Truiden en Jardinstr, opw weg","Kleine Herk",NA,NA,"YES","I_3570_1",NA,NA,"VMM_Mtp","Lotisch",NA,"Limburg","Alken","3570","1","7812",NA,"VMM",NA,"d.slootmaekers@vmm.be","203","866","42","73001","Alken","1982-07-17","1982001074","2771288","2823549591","Alken","5.30750969567569","50.8886293026213"
"FALSE","FALSE","Steenbruggestraat","Maalbeek",NA,NA,"YES","I_8570_1",NA,NA,"VMM_Mtp","Lotisch",NA,"West-Vlaanderen","Anzegem","8570","2","4851",NA,"West-Vlaanderen",NA,NA,"219","876","275","34002","Anzegem","1976-01-23","1975123003","35541","4235412341","Anzegem","3.45487689013985","50.850214912273"
"TRUE","TRUE","Houtvenne, Linieweg, afw brugje","Steenkensbeek","yjbjnzi1","TBD","YES","I_2235_1","bij voorkeur tussen 20/07 - 01/09",NA,"VMM_Mtp","Lotisch",NA,"Antwerpen","Hulshout","2235","2","8518",NA,"Antwerpen",NA,"hans.vanloy@provincieantwerpen.be","231","884","170","13016","Hulshout","1982-12-29","1982001920","3153509","1737892974","Hulshout","4.80233249582118","51.0619956025121"
"FALSE","FALSE","Hulshout; Linieweg; afw brugje mtp 324300","Steenkensbeek",NA,NA,"YES","I_2235_2","bij voorkeur tussen 20/07 - 01/09",NA,"VMM_Mtp","Lotisch",NA,"Antwerpen","Hulshout","2235","2","8518",NA,"Antwerpen",NA,"hans.vanloy@provincieantwerpen.be","231","884","170","13016","Hulshout","1982-12-29","1982001920","3153509","1737892974","Hulshout","4.80142463080853","51.062547238922"
"TRUE","TRUE",NA,"Grote Nete","yjbjnzi1","TBD","NO","V_2235_3",NA,NA,NA,NA,NA,"Antwerpen","Hulshout","2235","NA","NA",NA,NA,NA,NA,"231","884","170","13016","Hulshout","1982-12-29","1982001920","3153509","1737892974","Hulshout","4.78664729582507","51.0618265025103"
"FALSE","FALSE","suggestie I Beuls VL Brabant","Herseltseloop","yjbjnzi1","TBD","NO","V_3130_1",NA,NA,NA,NA,NA,"Vlaams-Brabant","Begijnendijk","3130",NA,NA,NA,NA,NA,NA,"247","894","188","24007","Begijnendijk","1976-01-23","1975123003","2539972","1765541661","Begijnendijk","4.79548339581916","51.0267753025216"
"FALSE","FALSE","Geetbets, Kasteellaan, opw brug","Gete",NA,NA,"YES","I_3450_1",NA,NA,"VMM_Mtp","Lotisch",NA,"Vlaams-Brabant","Geetbets","3450","9","7162",NA,NA,NA,NA,"249","895","41","24028","Geetbets","1976-01-23","1975123003","3210076","3551767078","Geetbets","5.12765979027665","50.9000983923358"
"FALSE","FALSE","Grazen, Galgestr, opw brug","Melsterbeek",NA,NA,"YES","I_3454_1",NA,NA,"VMM_Mtp","Lotisch",NA,"Vlaams-Brabant","Geetbets","3454","1","7154",NA,"VMM",NA,"d.slootmaekers@vmm.be","249","895","41","24028","Geetbets","1976-01-23","1975123003","3210076","3551767078","Geetbets","5.14808505844342","50.8605256879916"
"FALSE","FALSE","Geetbets, Kasteellaan, 20m afw brug en 428800","Gete",NA,NA,"YES","I_3450_2",NA,NA,"VMM_Mtp","Lotisch",NA,"Vlaams-Brabant","Geetbets","3450","1","7162",NA,"VMM",NA,"d.slootmaekers@vmm.be","249","895","41","24028","Geetbets","1976-01-23","1975123003","3210076","3551767078","Geetbets","5.12841467781494","50.9010644094539"
"FALSE","FALSE","Geetbets, Dorpsstr, afw mpl 429000","Gete",NA,NA,"YES","I_3450_3",NA,NA,"VMM_Mtp","Lotisch",NA,"Vlaams-Brabant","Geetbets","3450","1","7162",NA,"VMM",NA,"d.slootmaekers@vmm.be","249","895","41","24028","Geetbets","1976-01-23","1975123003","3210076","3551767078","Geetbets","5.12018428075785","50.8878124398171"
"FALSE","FALSE","Geetbets, landweg in verlengde Brugkensweg, in wei 90° bocht links tot einde populierenrij, dan 90° bocht rechts tot aan de Gete, traject 50m opw einde wei","Gete",NA,NA,"YES","I_3450_4",NA,NA,"VMM_Mtp","Lotisch",NA,"Vlaams-Brabant","Geetbets","3450","1","7162",NA,"VMM",NA,"d.slootmaekers@vmm.be","249","895","41","24028","Geetbets","1976-01-23","1975123003","3210076","3551767078","Geetbets","5.11380088270032","50.8805264236292"
"FALSE","FALSE","33/1-2;Geetbets; einde traject op 10m afw brug aan MP 434000","Melsterbeek",NA,NA,"YES","I_3450_5",NA,NA,"VMM_Mtp","Lotisch",NA,"Vlaams-Brabant","Geetbets","3450","1","7154",NA,"VMM",NA,"d.slootmaekers@vmm.be","249","895","41","24028","Geetbets","1976-01-23","1975123003","3210076","3551767078","Geetbets","5.13327460740464","50.900061933836"
"FALSE","FALSE","33/1-2;Runkelen.begin traject aan 1ste bocht opw MP 435000","Melsterbeek",NA,NA,"YES","I_3454_2",NA,NA,"VMM_Mtp","Lotisch",NA,"Vlaams-Brabant","Geetbets","3454","1","7154",NA,"VMM",NA,"d.slootmaekers@vmm.be","249","895","41","24028","Geetbets","1976-01-23","1975123003","3210076","3551767078","Geetbets","5.14858036795999","50.8604145157545"
"FALSE","FALSE","Ramsel; Ramselsestwg (zijstraat), opw brug","Raamdonksebeek","yjbjnzi1","TBD","YES","I_2230_1","bij voorkeur tussen 20/07 - 01/09",NA,"VMM_Mtp","Lotisch",NA,"Antwerpen","Herselt","2230","2","8657",NA,"Antwerpen",NA,"hans.vanloy@provincieantwerpen.be","253","897","168","13013","Herselt","1976-01-23","1975123003","4647289","5237275447","Herselt","4.84904539580712","51.039332302524"
"FALSE","FALSE",NA,"Herseltseloop","zjlmntu5",NA,"YES","I_2230_2",NA,NA,NA,NA,NA,"Antwerpen","Herselt","2230","NA","NA",NA,NA,NA,NA,"253","897","168","13013","Herselt","1976-01-23","1975123003","4647289","5237275447","Herselt","4.9029649957924","51.0276880025335"
"ONHOLD","ONHOLD","Oostvleteren, Stavelestraat, Evershamhoeve","Poperingevaart","ndk3mty3",NA,"YES","I_8640_1",NA,NA,"VMM_Mtp","Lotisch",NA,"West-Vlaanderen","Vleteren","8640","1","1203",NA,"VMM",NA,"d.slootmaekers@vmm.be","259","901","225","33041","Vleteren","1976-01-23","1975123003","3727193","385760301","Vleteren","2.716387","50.947319"
"FALSE","FALSE","Oostvleteren, Kruisboomstraat, Eikhoek","Poperingevaart",NA,NA,"YES","I_8640_2",NA,NA,"VMM_Mtp","Lotisch",NA,"West-Vlaanderen","Vleteren","8640","1","1203",NA,"VMM",NA,"d.slootmaekers@vmm.be","259","901","225","33041","Vleteren","1976-01-23","1975123003","3727193","385760301","Vleteren","2.74073344592255","50.9133151776036"
"FALSE","FALSE","Meeuwen, Peerderbaan, aan grensbord Meeuwen, OPW brug+LZP","Gielisbeek",NA,NA,"YES","I_3990_1",NA,NA,"VMM_Mtp","Lotisch",NA,"Limburg","Peer","3990","2","9663",NA,"Limburg",NA,"christel.bouchet@limburg.be","279","913","13","72030","Peer","1982-07-17","1982001074","4720193","8723599568","Peer","5.49461689089719","51.1156463917876"
"FALSE","FALSE","Wauberg, Meeuwerbaan (N719), grensbord Peer/Meeuwen, opw weg","Gielisbeek",NA,NA,"YES","I_3990_2",NA,NA,"VMM_Mtp","Lotisch",NA,"Limburg","Peer","3990","2","9663",NA,"Limburg",NA,"christel.bouchet@limburg.be","279","913","13","72030","Peer","1982-07-17","1982001074","4720193","8723599568","Peer","5.48321716348182","51.0898191511368"
"FALSE","FALSE","Wijchmaal, onverhard einde Elsevaart, opw. brugje","Bollisenbeek",NA,NA,"YES","I_3990_3",NA,NA,"VMM_Mtp","Lotisch",NA,"Limburg","Peer","3990","2","9702",NA,"Limburg",NA,"christel.bouchet@limburg.be","279","913","13","72030","Peer","1982-07-17","1982001074","4720193","8723599568","Peer","5.4037666387001","51.0989402570741"
"FALSE","FALSE","Bovenstestr, opw weg en zijgrachtjes","Kleinbeek",NA,NA,"YES","I_3990_4",NA,NA,"VMM_Mtp","Lotisch",NA,"Limburg","Peer","3990","2","9633",NA,"Limburg",NA,"christel.bouchet@limburg.be","279","913","13","72030","Peer","1982-07-17","1982001074","4720193","8723599568","Peer","5.43291744437028","51.1269890975496"
"TRUE","TRUE","Einde traject 10m afw brug aan MP 99500","Bollisenbeek","mwnhmtq1","TBD","YES","I_3990_5",NA,NA,"VMM_Mtp","Lotisch",NA,"Limburg","Peer","3990","2","9702",NA,"Limburg",NA,"christel.bouchet@limburg.be","279","913","13","72030","Peer","1982-07-17","1982001074","4720193","8723599568","Peer","5.39167379567882","51.1165486025638"
"FALSE","FALSE","Wijchmaal, Elsevaart, einde traject 10m afw brug aan MP 99550","Bollisenbeek",NA,NA,"YES","I_3990_6",NA,NA,"VMM_Mtp","Lotisch",NA,"Limburg","Peer","3990","2","9702",NA,"Limburg",NA,"christel.bouchet@limburg.be","279","913","13","72030","Peer","1982-07-17","1982001074","4720193","8723599568","Peer","5.40323281853485","51.099978756188"
"FALSE","FALSE","Runkelen:Binderveldseweg/Binderveld:Molenstr, opw brug","Melsterbeek",NA,NA,"YES","I_3850_1",NA,NA,"VMM_Mtp","Lotisch",NA,"Limburg","Nieuwerkerken","3850","1","7154",NA,"VMM",NA,"d.slootmaekers@vmm.be","282","916","43","71045","Nieuwerkerken","1982-07-17","1982001074","354999","2250981458","Nieuwerkerken","5.15970089515061","50.8561147025226"
"FALSE","FALSE","Vorsterweg,  afw brug","Grote Laak",NA,NA,"YES","I_3980_1",NA,NA,"VMM_Mtp","Lotisch",NA,"Limburg","Tessenderlo","3980","1","8503",NA,"VMM",NA,"d.slootmaekers@vmm.be","294","922","24","71057","Tessenderlo","1849-06-23",NA,"4735687","5164253454","Tessenderlo","5.09423481904324","51.0819167324334"
"FALSE","FALSE","Tessenderlo, zijstraat industrieweg, afw brug","Grotebeek",NA,NA,"YES","I_3980_2",NA,NA,"VMM_Mtp","Lotisch",NA,"Limburg","Tessenderlo","3980","1","7751",NA,"VMM",NA,"d.slootmaekers@vmm.be","294","922","24","71057","Tessenderlo","1849-06-23",NA,"4735687","5164253454","Tessenderlo","5.12903402672502","51.0541807751442"
"FALSE","FALSE","Laakdal; Vorst; Lindestraat; beginnen 10m opw brugje","Grote Laak",NA,NA,"YES","I_3980_3",NA,NA,"VMM_Mtp","Lotisch",NA,"Limburg","Tessenderlo","3980","1","8503",NA,"VMM",NA,"d.slootmaekers@vmm.be","294","922","24","71057","Tessenderlo","1849-06-23",NA,"4735687","5164253454","Tessenderlo","5.05879937070456","51.0790463909736"
"FALSE","FALSE","Tessenderlo; Vorsterweg; mtp 326100 (130m afw brug)","Grote Laak",NA,NA,"YES","I_3980_4",NA,NA,"VMM_Mtp","Lotisch",NA,"Limburg","Tessenderlo","3980","1","8503",NA,"VMM",NA,"d.slootmaekers@vmm.be","294","922","24","71057","Tessenderlo","1849-06-23",NA,"4735687","5164253454","Tessenderlo","5.09390293962335","51.0826019615216"
"FALSE","FALSE","Ham; Bergstraat; 120m afw straat beginnen (op scheiding maïsveld/bos)","Grote Laak",NA,NA,"YES","I_3980_5",NA,NA,"VMM_Mtp","Lotisch",NA,"Limburg","Tessenderlo","3980","1","8503",NA,"VMM",NA,"d.slootmaekers@vmm.be","294","922","24","71057","Tessenderlo","1849-06-23",NA,"4735687","5164253454","Tessenderlo","5.14484577694762","51.0795984490301"
"FALSE","FALSE","Meensel/Kapellen, aan  grensbord Kapellen / Glabbeek, Tiensebaan/Stationstr, langs weg, voor samenvloeiing met Dorpswaterloop","Begijnebeek",NA,NA,"YES","I_3381_1",NA,NA,"VMM_Mtp","Lotisch",NA,"Vlaams-Brabant","Glabbeek","3381","9","7163",NA,NA,NA,NA,"299","926","260","24137","Glabbeek","1976-01-23","1975123003","3012163","2699167975","Glabbeek","4.94511730517228","50.8947997025965"
"FALSE","FALSE","Hoeleden, Zuurbemdestw, 10m afw 425000","Velpe",NA,NA,"YES","I_3471_1",NA,NA,"VMM_Mtp","Lotisch",NA,"Vlaams-Brabant","Glabbeek","3471","1","7155",NA,"VMM",NA,"d.slootmaekers@vmm.be","299","926","260","24137","Glabbeek","1976-01-23","1975123003","3012163","2699167975","Glabbeek","4.98276556433267","50.8704891774794"
"TRUE","TRUE",NA,NA,"zjm0zwm2","TBD","YES","I_8890_2",NA,NA,NA,NA,NA,"West-Vlaanderen","Moorslede","8890",NA,NA,NA,NA,NA,NA,"306","930","246","36012","Moorslede","1976-01-23","1975123003","3389135","3544784273","Moorslede","3.0910547","50.8534766"
"TRUE","TRUE",NA,"Oude Veurnevaart - Langeleed","njhknmu0",NA,"YES","I_8670_1",NA,NA,"VMM_Mtp","Lotisch",NA,"West-Vlaanderen","Koksijde","8670","2","1212",NA,"Westkustpolder","058/314653","info@westkustpolder.be","7","931","139","38014","Koksijde","1976-01-23","1975123003","3787729","503608041","Koksijde","2.6847605","51.1038088"
"FALSE","FALSE",NA,"Oude Veurnevaart - Langeleed",NA,NA,"YES","I_8670_2",NA,NA,"VMM_Mtp","Lotisch",NA,"West-Vlaanderen","Koksijde","8670","2","1212",NA,"Westkustpolder","058/314653","info@westkustpolder.be","7","931","139","38014","Koksijde","1976-01-23","1975123003","3787729","503608041","Koksijde","2.67252664056735","51.0887082453384"
"FALSE","FALSE","Privé (SUNPARKS)",NA,NA,NA,"YES","I_8670_3",NA,NA,"Scheers","Lentisch",NA,"West-Vlaanderen","Koksijde","8670",NA,NA,NA,NA,NA,NA,"7","931","139","38014","Koksijde","1976-01-23","1975123003","3787729","503608041","Koksijde","2.71124889584337","51.1299839921109"
"FALSE","FALSE","Ramskapelle, Diksmuidse weg, Koolhofbrug","Slijkvaart",NA,NA,"YES","I_8620_1",NA,NA,"VMM_Mtp","Lotisch",NA,"West-Vlaanderen","Nieuwpoort","8620","1","1211",NA,"VMM",NA,"d.slootmaekers@vmm.be","101","933","127","38016","Nieuwpoort","1976-01-23","1975123003","36451","3328401861","Nieuwpoort","2.75131598168558","51.1151875384783"
"FALSE","FALSE","Ramskapelle, Violettestraat, Hve Rijkenhoek","Grote Beverdijkvaart",NA,NA,"YES","I_8620_2",NA,NA,"VMM_Mtp","Lotisch",NA,"West-Vlaanderen","Nieuwpoort","8620","1","1205",NA,"VMM",NA,"d.slootmaekers@vmm.be","101","933","127","38016","Nieuwpoort","1976-01-23","1975123003","36451","3328401861","Nieuwpoort","2.7909340209932","51.1136830245098"
"FALSE","FALSE","Ramskapelle, Koolhofstraat, Koolhofbrug","Slijkvaart",NA,NA,"YES","I_8620_3",NA,NA,"VMM_Mtp","Lotisch",NA,"West-Vlaanderen","Nieuwpoort","8620","1","1211",NA,"VMM",NA,"d.slootmaekers@vmm.be","101","933","127","38016","Nieuwpoort","1976-01-23","1975123003","36451","3328401861","Nieuwpoort","2.74799162787546","51.1117793311603"
"FALSE","FALSE","Kleine Beverdijkvaart","Kleine Beverdijkvaart","mwzkzmy1","15/07/2024","YES","I_8620_4",NA,NA,NA,"Lotisch",NA,"West-Vlaanderen","Diksmuide","8620","2","0",NA,"Westkustpolder","058/314653","info@westkustpolder.be","101","933","127","38016","Nieuwpoort","1976-01-23","1975123003","36451","3328401861","Nieuwpoort","2.82006579630626","51.1024680022856"
"TRUE","TRUE","Koolhofput in Nieuwpoort","Spaarbekken Koolhofvaart","mwu5ntqy",NA,"YES","I_8620_5",NA,NA,"EcoWater","Lentisch",NA,"West-Vlaanderen","Nieuwpoort","8620","NA","NA",NA,NA,NA,NA,"101","933","127","38016","Nieuwpoort","1976-01-23","1975123003","36451","3328401861","Nieuwpoort","2.75641679632337","51.1233600022733"
"FALSE","FALSE","connected to Yser",NA,NA,NA,"YES","I_8620_6",NA,NA,"Scheers","Lentisch",NA,"West-Vlaanderen","Nieuwpoort","8620",NA,NA,NA,NA,NA,NA,"101","933","127","38016","Nieuwpoort","1976-01-23","1975123003","36451","3328401861","Nieuwpoort","2.78905449631643","51.1307748022746"
"FALSE","FALSE","recreation area","Spaarbekken Koolhofvaart",NA,NA,"YES","I_8620_7",NA,NA,"Scheers","Lentisch",NA,"West-Vlaanderen","Nieuwpoort","8620",NA,NA,NA,NA,NA,NA,"101","933","127","38016","Nieuwpoort","1976-01-23","1975123003","36451","3328401861","Nieuwpoort","2.75593769638285","51.1197382921743"
"FALSE","FALSE","Utsenaken, Melkweg, opw brug","Grote Gete",NA,NA,"YES","I_3300_1",NA,NA,"VMM_Mtp","Lotisch",NA,"Vlaams-Brabant","Tienen","3300","99","7153",NA,NA,NA,NA,"6","939","278","24107","Tienen","1976-01-23","1975123003","5295706","7277228799","Tienen","4.99071205337995","50.8204638234318"
"FALSE","FALSE","Oplinter, Oude Getestr, RO thv kruising/splitsing met zijweg","Grote Gete",NA,NA,"YES","I_3300_2",NA,NA,"VMM_Mtp","Lotisch",NA,"Vlaams-Brabant","Tienen","3300","1","7153",NA,"VMM",NA,"d.slootmaekers@vmm.be","6","939","278","24107","Tienen","1976-01-23","1975123003","5295706","7277228799","Tienen","4.97291045820472","50.8101467438085"
"FALSE","FALSE","Tienen, Oude Getestraat, opw. brug naar RWZI","Grote Gete",NA,NA,"YES","I_3300_3",NA,NA,"VMM_Mtp","Lotisch",NA,"Vlaams-Brabant","Tienen","3300","1","7153",NA,"VMM",NA,"d.slootmaekers@vmm.be","6","939","278","24107","Tienen","1976-01-23","1975123003","5295706","7277228799","Tienen","4.96806819575234","50.8053890026064"
"FALSE","FALSE","Tienen, Ambachtenlaan, afw. brug","Grote Gete",NA,NA,"YES","I_3300_4",NA,NA,"VMM_Mtp","Lotisch",NA,"Vlaams-Brabant","Tienen","3300","1","7153",NA,"VMM",NA,"d.slootmaekers@vmm.be","6","939","278","24107","Tienen","1976-01-23","1975123003","5295706","7277228799","Tienen","4.96243991057287","50.805714362328"
"FALSE","FALSE","Tienen, St.-Helenavest, afw brug","Grote Gete",NA,NA,"YES","I_3300_5",NA,NA,"VMM_Mtp","Lotisch",NA,"Vlaams-Brabant","Tienen","3300","1","7153",NA,"VMM",NA,"d.slootmaekers@vmm.be","6","939","278","24107","Tienen","1976-01-23","1975123003","5295706","7277228799","Tienen","4.9356385299881","50.8020714963503"
"FALSE","FALSE","Tienen, Pastoorstr, opw weg","Grote Gete",NA,NA,"YES","I_3300_6",NA,NA,"VMM_Mtp","Lotisch",NA,"Vlaams-Brabant","Tienen","3300","1","7153",NA,"VMM",NA,"d.slootmaekers@vmm.be","6","939","278","24107","Tienen","1976-01-23","1975123003","5295706","7277228799","Tienen","4.91898830837892","50.7891246281461"
"FALSE","FALSE","Oplinter, Melkweg, 5m opw brug","Grote Gete",NA,NA,"YES","I_3300_7",NA,NA,"VMM_Mtp","Lotisch",NA,"Vlaams-Brabant","Tienen","3300","1","7153",NA,"VMM",NA,"d.slootmaekers@vmm.be","6","939","278","24107","Tienen","1976-01-23","1975123003","5295706","7277228799","Tienen","4.99060974239098","50.8202396195627"
"FALSE","FALSE","Oorbeek, Poastoorstr, 5m opw 441000","Grote Gete","ytfmywnh",NA,"YES","I_3300_8",NA,NA,"VMM_Mtp","Lotisch",NA,"Vlaams-Brabant","Tienen","3300","1","7153",NA,"VMM",NA,"d.slootmaekers@vmm.be","6","939","278","24107","Tienen","1976-01-23","1975123003","5295706","7277228799","Tienen","4.91878869576295","50.7890357026056"
"FALSE","FALSE","Tienen",NA,NA,NA,"YES","I_3300_9",NA,NA,"Scheers","Lentisch",NA,"Vlaams-Brabant","Tienen","3300",NA,NA,NA,NA,NA,NA,"6","939","278","24107","Tienen","1976-01-23","1975123003","5295706","7277228799","Tienen","4.95157879412266","50.8117903928462"
"FALSE","FALSE","Moelingen, Voerenstraat, opw brug","Berwijn",NA,NA,"YES","I_3790_1",NA,NA,"VMM_Mtp","Lotisch",NA,"Limburg","Voeren","3790","1","9536",NA,"VMM",NA,"d.slootmaekers@vmm.be","9","941","55","73109","Voeren","1976-01-23","1975123003","5372878","5060883845","Voeren","5.71344245929291","50.7567716890245"
"FALSE","FALSE","34/7-8; Voeren; Route De Mouland. in bocht met Drees; begin traject 100m afw bocht (10m vanaf brug)","Voer",NA,NA,"YES","I_3798_1",NA,NA,"VMM_Mtp","Lotisch",NA,"Limburg","Voeren","3798","1","9574",NA,"VMM",NA,"d.slootmaekers@vmm.be","9","941","55","73109","Voeren","1976-01-23","1975123003","5372878","5060883845","Voeren","5.74890349036413","50.7614747396947"
"FALSE","FALSE","34/7-8; Moelingen; begin traject 60m opw monding in Maas","Berwijn",NA,NA,"YES","I_3790_2",NA,NA,"VMM_Mtp","Lotisch",NA,"Limburg","Voeren","3790","1","9536",NA,"VMM",NA,"d.slootmaekers@vmm.be","9","941","55","73109","Voeren","1976-01-23","1975123003","5372878","5060883845","Voeren","5.68432679831621","50.755205610808"
"FALSE","FALSE","34/7-8; Moelingen; Aardeweg tussen Voerenstraat en Batticestraaat, via boomgaard; traject van klif (holle oever) tot dieper stuk","Berwijn",NA,NA,"YES","I_3790_3",NA,NA,"VMM_Mtp","Lotisch",NA,"Limburg","Voeren","3790","1","9536",NA,"Jacobs Karen",NA,"recreatie.lim.anb@vlaanderen.be","9","941","55","73109","Voeren","1976-01-23","1975123003","5372878","5060883845","Voeren","5.72281929667125","50.7540740594169"
"FALSE","FALSE",NA,"Dijle",NA,NA,"YES","I_3040_1",NA,NA,"VMM_Mtp","Lotisch",NA,"Vlaams-Brabant","Huldenberg","3040","1","6551",NA,"VMM",NA,"d.slootmaekers@vmm.be","12","943","290","24045","Huldenberg","1982-12-29","1982001920","4367889","3994604987","Huldenberg","4.63724240880529","50.7762847042345"
"FALSE","FALSE","Neerijse, zijweg Eygenstr op RO Ijse, afw voetgangersbrugje 40m voor monding in de Dijle","Ijse",NA,NA,"YES","I_3040_2",NA,NA,"VMM_Mtp","Lotisch",NA,"Vlaams-Brabant","Huldenberg","3040","1","6556",NA,"VMM",NA,"d.slootmaekers@vmm.be","12","943","290","24045","Huldenberg","1982-12-29","1982001920","4367889","3994604987","Huldenberg","4.6409311864706","50.8231843522925"
"FALSE","FALSE","Neerijse, Lindenhoflaan, opw weg (FC), afw weg (BBI)","Ijse",NA,NA,"YES","I_3040_3",NA,NA,"VMM_Mtp","Lotisch",NA,"Vlaams-Brabant","Huldenberg","3040","1","6556",NA,"VMM",NA,"d.slootmaekers@vmm.be","12","943","290","24045","Huldenberg","1982-12-29","1982001920","4367889","3994604987","Huldenberg","4.63400931349193","50.8163591476561"
"FALSE","FALSE","Neerijse, Kamstr, opw weg en overstort","Ijse",NA,NA,"YES","I_3040_4",NA,NA,"VMM_Mtp","Lotisch",NA,"Vlaams-Brabant","Huldenberg","3040","1","6556",NA,"VMM",NA,"d.slootmaekers@vmm.be","12","943","290","24045","Huldenberg","1982-12-29","1982001920","4367889","3994604987","Huldenberg","4.6217444527612","50.8128983539281"
"FALSE","FALSE","Loonbeek, Bertelsheide, afw brug","Ijse",NA,NA,"YES","I_3040_5",NA,NA,"VMM_Mtp","Lotisch",NA,"Vlaams-Brabant","Huldenberg","3040","1","6556",NA,"VMM",NA,"d.slootmaekers@vmm.be","12","943","290","24045","Huldenberg","1982-12-29","1982001920","4367889","3994604987","Huldenberg","4.61319195747814","50.8081430504651"
"FALSE","FALSE","Huldenberg, Smeysberg, opw brug","Ijse",NA,NA,"YES","I_3040_6",NA,NA,"VMM_Mtp","Lotisch",NA,"Vlaams-Brabant","Huldenberg","3040","1","6556",NA,"VMM",NA,"d.slootmaekers@vmm.be","12","943","290","24045","Huldenberg","1982-12-29","1982001920","4367889","3994604987","Huldenberg","4.59274632633348","50.7900968218876"
"FALSE","FALSE","Sint-Agatha-Rode, Hoekstr, opw weg","Laan",NA,NA,"YES","I_3040_7",NA,NA,"VMM_Mtp","Lotisch",NA,"Vlaams-Brabant","Huldenberg","3040","1","6691",NA,"VMM",NA,"d.slootmaekers@vmm.be","12","943","290","24045","Huldenberg","1982-12-29","1982001920","4367889","3994604987","Huldenberg","4.63343071793043","50.7917737035342"
"FALSE","FALSE","Neerijse, Kamstr, 5m opw brug aan 4840000","Ijse",NA,NA,"YES","I_3040_8",NA,NA,"VMM_Mtp","Lotisch",NA,"Vlaams-Brabant","Huldenberg","3040","1","6556",NA,"VMM",NA,"d.slootmaekers@vmm.be","12","943","290","24045","Huldenberg","1982-12-29","1982001920","4367889","3994604987","Huldenberg","4.62130343080533","50.812683556184"
"FALSE","FALSE","Huldenberg, Smeysberg, afw 484300 en 5m afw overstorten","Ijse",NA,NA,"YES","I_3040_9",NA,NA,"VMM_Mtp","Lotisch",NA,"Vlaams-Brabant","Huldenberg","3040","1","6556",NA,"VMM",NA,"d.slootmaekers@vmm.be","12","943","290","24045","Huldenberg","1982-12-29","1982001920","4367889","3994604987","Huldenberg","4.59583025685339","50.7914123504635"
"FALSE","FALSE","Huldenberg, De Peuthystraat 4 (bord Trepolia), in kasteeldomein, 10 m opw. brugje","Ijse",NA,NA,"YES","I_3040_10",NA,NA,"VMM_Mtp","Lotisch",NA,"Vlaams-Brabant","Huldenberg","3040","1","6556",NA,"VMM",NA,"d.slootmaekers@vmm.be","12","943","290","24045","Huldenberg","1982-12-29","1982001920","4367889","3994604987","Huldenberg","4.57838739095309","50.7886581642597"
"FALSE","FALSE","Sint-Agatha-Rode, Potterstr, einde traj 10m afw brug en 488200","Laan",NA,NA,"YES","I_3040_11",NA,NA,"VMM_Mtp","Lotisch",NA,"Vlaams-Brabant","Huldenberg","3040","1","6691",NA,"VMM",NA,"d.slootmaekers@vmm.be","12","943","290","24045","Huldenberg","1982-12-29","1982001920","4367889","3994604987","Huldenberg","4.63008749813656","50.7873852630939"
"FALSE","FALSE","Private?",NA,NA,NA,"YES","I_3040_12",NA,NA,"Scheers","Lentisch",NA,"Vlaams-Brabant","Huldenberg","3040",NA,NA,NA,NA,NA,NA,"12","943","290","24045","Huldenberg","1982-12-29","1982001920","4367889","3994604987","Huldenberg","4.58180399436811","50.7881945924704"
"FALSE","FALSE","Reningelst, Vlamertingseweg zijweg, afw Reningelst","Kemmelbeek",NA,NA,"YES","I_8970_1",NA,NA,"VMM_Mtp","Lotisch",NA,"West-Vlaanderen","Poperinge","8970","2","1204",NA,"West-Vlaanderen",NA,NA,"14","944","238","33021","Poperinge","1976-01-23","1975123003","7424854","12037331235","Poperinge","2.77776441102046","50.8232239368031"
"TRUE","TRUE","Pezelhoekstraat, Reepje","Poperingevaart","m2jmywjk",NA,"YES","I_8970_2",NA,NA,"VMM_Mtp","Lotisch",NA,"West-Vlaanderen","Poperinge","8970","1","1203",NA,"VMM",NA,"d.slootmaekers@vmm.be","14","944","238","33021","Poperinge","1976-01-23","1975123003","7424854","12037331235","Poperinge","2.7446808","50.8662181"
"FALSE","FALSE","Ouderdomseweg","Hazelbeek",NA,NA,"YES","I_8970_3",NA,NA,"VMM_Mtp","Lotisch",NA,"West-Vlaanderen","Poperinge","8970","2","1997",NA,"West-Vlaanderen",NA,NA,"14","944","238","33021","Poperinge","1976-01-23","1975123003","7424854","12037331235","Poperinge","2.76033888341805","50.8371480727826"
"FALSE","FALSE","Vlamertinge","Kemmelbeek",NA,NA,"YES","I_8970_4",NA,NA,"VMM_Mtp","Lotisch",NA,"West-Vlaanderen","Poperinge","8970","2","1204",NA,"West-Vlaanderen",NA,NA,"14","944","238","33021","Poperinge","1976-01-23","1975123003","7424854","12037331235","Poperinge","2.78831740558273","50.8310814378792"
"FALSE","FALSE","Switch Road","Poperingevaart",NA,NA,"YES","I_8970_5",NA,NA,"VMM_Mtp","Lotisch",NA,"West-Vlaanderen","Poperinge","8970","1","1203",NA,"VMM",NA,"d.slootmaekers@vmm.be","14","944","238","33021","Poperinge","1976-01-23","1975123003","7424854","12037331235","Poperinge","2.7322612039236","50.8597244583361"
"FALSE","FALSE",NA,"Poperingevaart",NA,NA,"YES","I_8970_6",NA,NA,"VMM_Mtp","Lotisch",NA,"West-Vlaanderen","Poperinge","8970","2","1203",NA,"West-Vlaanderen",NA,NA,"14","944","238","33021","Poperinge","1976-01-23","1975123003","7424854","12037331235","Poperinge","2.70069158619528","50.8329610012003"
"FALSE","FALSE",NA,"Heidebeek",NA,NA,"YES","I_8972_1",NA,NA,"VMM_Mtp","Lotisch",NA,"West-Vlaanderen","Poperinge","8972","1","1217",NA,"VMM",NA,"d.slootmaekers@vmm.be","14","944","238","33021","Poperinge","1976-01-23","1975123003","7424854","12037331235","Poperinge","2.60824298912126","50.8932497569184"
"FALSE","FALSE",NA,"Yser-IJzer",NA,NA,"YES","I_8972_2",NA,NA,NA,"Lotisch",NA,"West-Vlaanderen","Poperinge","8972","0","0",NA,NA,NA,NA,"14","944","238","33021","Poperinge","1976-01-23","1975123003","7424854","12037331235","Poperinge","2.60737946741585","50.9116887357032"
"FALSE","FALSE","Tongeren, Hardelweg/Oude Blaarstraat, Natuurgebied ""De Kevie"", afw brug","Jeker",NA,NA,"YES","I_3700_1",NA,NA,"VMM_Mtp","Lotisch",NA,"Limburg","Tongeren","3700","1","9504",NA,"VMM",NA,"d.slootmaekers@vmm.be","15","945","52","73083","Tongeren","1982-07-17","1982001074","5556102","8781400004","Tongeren","5.4907471289989","50.7797622324309"
"FALSE","FALSE","Lauw, Brugstraat, opw brug","Jeker",NA,NA,"YES","I_3700_2",NA,NA,"VMM_Mtp","Lotisch",NA,"Limburg","Tongeren","3700","1","9504",NA,"VMM",NA,"d.slootmaekers@vmm.be","15","945","52","73083","Tongeren","1982-07-17","1982001074","5556102","8781400004","Tongeren","5.41144450442367","50.7386173999773"
"FALSE","FALSE","'s Herenelderen, Lindebornstr, afw weg en overstort","Demer",NA,NA,"YES","I_3700_3",NA,NA,"VMM_Mtp","Lotisch",NA,"Limburg","Tongeren","3700","2","7151",NA,"Limburg",NA,"christel.bouchet@limburg.be","15","945","52","73083","Tongeren","1982-07-17","1982001074","5556102","8781400004","Tongeren","5.49997312814668","50.8107811754617"
"FALSE","FALSE","Jesseren, Broekstraat, onverharde weg tussen huisnr. 18-20, 300 m tot einde voetbalveld, 100 m tot Mombeek, 100 m verder afw. bemonsteren.","Mombeek",NA,NA,"YES","I_3700_4",NA,NA,"VMM_Mtp","Lotisch",NA,"Limburg","Tongeren","3700","2","7159",NA,"Limburg",NA,"christel.bouchet@limburg.be","15","945","52","73083","Tongeren","1982-07-17","1982001074","5556102","8781400004","Tongeren","5.40357790686631","50.8087327350545"
"FALSE","FALSE","Sluizen, afw 144500","Jeker",NA,NA,"YES","I_3700_5",NA,NA,"VMM_Mtp","Lotisch",NA,"Limburg","Tongeren","3700","1","9504",NA,"VMM",NA,"d.slootmaekers@vmm.be","15","945","52","73083","Tongeren","1982-07-17","1982001074","5556102","8781400004","Tongeren","5.5266722183362","50.759803399191"
"FALSE","FALSE",NA,"Jeker",NA,NA,"YES","I_3700_6",NA,NA,"VMM_Mtp","Lotisch",NA,"Limburg","Tongeren","3700","1","9504",NA,"VMM",NA,"d.slootmaekers@vmm.be","15","945","52","73083","Tongeren","1982-07-17","1982001074","5556102","8781400004","Tongeren","5.40406150741722","50.7359768214239"
"FALSE","FALSE","Kolmont; opw Herkhofweg; begin mf-traject","Mombeek",NA,NA,"YES","I_3700_7",NA,NA,"VMM_Mtp","Lotisch",NA,"Limburg","Tongeren","3700","2","7159",NA,"Limburg",NA,"christel.bouchet@limburg.be","15","945","52","73083","Tongeren","1982-07-17","1982001074","5556102","8781400004","Tongeren","5.40928777223321","50.8013009404617"
"FALSE","FALSE","Tongeren",NA,NA,NA,"YES","I_3700_8",NA,NA,"Scheers","Lentisch",NA,"Limburg","Tongeren","3700",NA,NA,NA,NA,NA,NA,"15","945","52","73083","Tongeren","1982-07-17","1982001074","5556102","8781400004","Tongeren","5.44985179309542","50.7872171928375"
"FALSE","FALSE","Tongeren",NA,NA,NA,"YES","I_3700_9",NA,NA,"Scheers","Lentisch",NA,"Limburg","Tongeren","3700",NA,NA,NA,NA,NA,NA,"15","945","52","73083","Tongeren","1982-07-17","1982001074","5556102","8781400004","Tongeren","5.44620559319785","50.7869576932267"
"FALSE","FALSE","Linter-Drieslinter, Molenstr, aan 'Geensmolen', 5m opw brug","Grote Gete",NA,NA,"YES","I_3350_1",NA,NA,"VMM_Mtp","Lotisch",NA,"Vlaams-Brabant","Linter","3350","1","7153",NA,"VMM",NA,"d.slootmaekers@vmm.be","21","947","49","24133","Linter","1976-01-23","1975123003","3928721","3687115191","Linter","5.04661015786634","50.8398594825101"
"FALSE","FALSE","Moerkerke, Moerkerkebrug","Hoge Watering",NA,NA,"YES","I_8340_1",NA,NA,"VMM_Mtp","Lotisch",NA,"West-Vlaanderen","Damme","8340","2","2129",NA,"Oostkustpolder","050/333271","waterbeheer@oostkustpolder.be","29","949","83","31006","Damme","1982-12-29","1982001920","5125441","9036361608","Damme","3.34660122411714","51.240441024708"
"FALSE","FALSE","Lapscheure, Natienlaan","Zevengemete",NA,NA,"YES","I_8340_2",NA,NA,"VMM_Mtp","Lotisch",NA,"West-Vlaanderen","Damme","8340","2","2306",NA,"Oostkustpolder","050/333271","waterbeheer@oostkustpolder.be","29","949","83","31006","Damme","1982-12-29","1982001920","5125441","9036361608","Damme","3.35029527477193","51.279161920602"
"FALSE","FALSE","Sijsele, Brieversweg, Kaleshoek","Kaleshoekbeek",NA,NA,"YES","I_8340_3",NA,NA,"VMM_Mtp","Lotisch",NA,"West-Vlaanderen","Damme","8340","2","2713",NA,"Oostkustpolder","050/333271","waterbeheer@oostkustpolder.be","29","949","83","31006","Damme","1982-12-29","1982001920","5125441","9036361608","Damme","3.36420333642617","51.2317014477126"
"FALSE","FALSE","Oostkerke, Sabtsweg","Zwinnevaart","mjcxzme1",NA,"YES","I_8340_4",NA,NA,"VMM_Mtp","Lotisch",NA,"West-Vlaanderen","Damme","8340","1","2230",NA,"VMM",NA,"d.slootmaekers@vmm.be","29","949","83","31006","Damme","1982-12-29","1982001920","5125441","9036361608","Damme","3.29039549621302","51.2830861022841"
"FALSE","FALSE",NA,"Hoge Watering",NA,NA,"YES","I_8340_5",NA,NA,"VMM_Mtp","Lotisch",NA,"West-Vlaanderen","Damme","8340","2","2129",NA,"Oostkustpolder","050/333271","waterbeheer@oostkustpolder.be","29","949","83","31006","Damme","1982-12-29","1982001920","5125441","9036361608","Damme","3.3407419744412","51.2398868866208"
"FALSE","FALSE","Schipdonkvaart-Zuid, jaagpad","Zuidervaartje",NA,NA,"YES","I_8340_6",NA,NA,"VMM_Mtp","Lotisch",NA,"West-Vlaanderen","Damme","8340","1","2124",NA,"VMM",NA,"d.slootmaekers@vmm.be","29","949","83","31006","Damme","1982-12-29","1982001920","5125441","9036361608","Damme","3.29792362232734","51.2629600959375"
"FALSE","FALSE","Rabattestraat","Zuidervaartje","mjcxzme1",NA,"YES","I_8340_7",NA,NA,"VMM_Mtp","Lotisch",NA,"West-Vlaanderen","Damme","8340","1","2124",NA,"VMM",NA,"d.slootmaekers@vmm.be","29","949","83","31006","Damme","1982-12-29","1982001920","5125441","9036361608","Damme","3.28635629621096","51.253299402292"
"FALSE","FALSE",NA,"Zwinnevaart",NA,NA,"YES","I_8340_8",NA,NA,"Scheers","Lotisch",NA,"West-Vlaanderen","Damme","8340","1","2230",NA,"VMM",NA,"d.slootmaekers@vmm.be","29","949","83","31006","Damme","1982-12-29","1982001920","5125441","9036361608","Damme","3.28294699544937","51.2780505924945"
"FALSE","FALSE",NA,NA,"mjcxzme1",NA,"YES","I_8340_9",NA,NA,NA,"Lotisch",NA,"West-Vlaanderen","Damme","8340",NA,NA,NA,NA,NA,NA,"29","949","83","31006","Damme","1982-12-29","1982001920","5125441","9036361608","Damme","3.335547096203","51.2905497022868"
"FALSE","FALSE",NA,NA,NA,NA,"YES","I_8340_10",NA,NA,NA,"Lotisch",NA,"West-Vlaanderen","Damme","8340",NA,NA,NA,NA,NA,NA,"29","949","83","31006","Damme","1982-12-29","1982001920","5125441","9036361608","Damme","3.35609596127127","51.2459338945852"
"FALSE","FALSE",NA,NA,NA,NA,"YES","I_8340_11",NA,NA,NA,"Lotisch",NA,"West-Vlaanderen","Damme","8340",NA,NA,NA,NA,NA,NA,"29","949","83","31006","Damme","1982-12-29","1982001920","5125441","9036361608","Damme","3.37342239130482","51.2426869039105"
"TRUE","TRUE",NA,"Ronselarebeek","zmrhymrm",NA,"NO","V_8000_6",NA,NA,NA,NA,NA,"West-Vlaanderen","Brugge","8000","NA","NA",NA,NA,NA,NA,"29","949","83","31006","Damme","1982-12-29","1982001920","5125441","9036361608","Damme","3.25270799621937","51.2571020022875"
"FALSE","FALSE",NA,"Zuidwatergang","mdbjyzfk",NA,"YES","I_8340_12",NA,NA,NA,NA,NA,"West-Vlaanderen","Damme","8340","NA","NA",NA,NA,NA,NA,"29","949","83","31006","Damme","1982-12-29","1982001920","5125441","9036361608","Damme","3.29166799621496","51.3052060022781"
"FALSE","FALSE",NA,NA,"ndfhyzg1","TBD","NO","V_8340_13",NA,NA,NA,NA,NA,"West-Vlaanderen","Damme","8340",NA,NA,NA,NA,NA,NA,"29","949","83","31006","Damme","1982-12-29","1982001920","5125441","9036361608","Damme","3.36370359619712","51.2989399022874"
"TRUE","TRUE",NA,NA,"ndfhyzg1",NA,"NO","V_8340_14",NA,NA,NA,NA,NA,"West-Vlaanderen","Damme","8340",NA,NA,NA,NA,NA,NA,"29","949","83","31006","Damme","1982-12-29","1982001920","5125441","9036361608","Damme","3.34519999620023","51.2860000022891"
"TRUE","TRUE",NA,NA,"ndfhyzg1",NA,"NO","V_8340_15",NA,NA,NA,NA,NA,"West-Vlaanderen","Damme","8340",NA,NA,NA,NA,NA,NA,"29","949","83","31006","Damme","1982-12-29","1982001920","5125441","9036361608","Damme","3.33899999620235","51.2923000022866"
"TRUE","TRUE",NA,NA,"ndfhyzg1",NA,"NO","V_8340_16",NA,NA,NA,NA,NA,"West-Vlaanderen","Damme","8340",NA,NA,NA,NA,NA,NA,"29","949","83","31006","Damme","1982-12-29","1982001920","5125441","9036361608","Damme","3.30449999621101","51.2964000022819"
"TRUE","TRUE",NA,"Hoekevaart","ndfhyzg1",NA,"NO","V_8340_17",NA,NA,NA,NA,NA,"West-Vlaanderen","Damme","8340","NA","NA",NA,NA,NA,NA,"29","949","83","31006","Damme","1982-12-29","1982001920","5125441","9036361608","Damme","3.33129999620491","51.2994000022839"
"TRUE","TRUE",NA,"De Platte Kreek (De kreken van Lapscheure)","ndfhyzg1",NA,"NO","V_8340_18",NA,NA,NA,NA,NA,"West-Vlaanderen","Damme","8340",NA,NA,NA,NA,NA,NA,"29","949","83","31006","Damme","1982-12-29","1982001920","5125441","9036361608","Damme","3.35769999619697","51.2833000022911"
"TRUE","TRUE",NA,NA,"ndfhyzg1",NA,"NO","V_8340_19",NA,NA,NA,NA,NA,"West-Vlaanderen","Damme","8340","NA","NA",NA,NA,NA,NA,"29","949","83","31006","Damme","1982-12-29","1982001920","5125441","9036361608","Damme","3.357599996197","51.2834000022911"
"TRUE","TRUE",NA,NA,"ndfhyzg1",NA,"NO","V_8340_20",NA,NA,NA,NA,NA,"West-Vlaanderen","Damme","8340",NA,NA,NA,NA,NA,NA,"29","949","83","31006","Damme","1982-12-29","1982001920","5125441","9036361608","Damme","3.34569999620144","51.2991000022855"
"TRUE","TRUE",NA,NA,"ndfhyzg1",NA,"NO","V_8340_21",NA,NA,NA,NA,NA,"West-Vlaanderen","Damme","8340",NA,NA,NA,NA,NA,NA,"29","949","83","31006","Damme","1982-12-29","1982001920","5125441","9036361608","Damme","3.30419999620867","51.2727000022885"
"TRUE","TRUE",NA,NA,"ndfhyzg1",NA,"NO","V_8340_22",NA,NA,NA,NA,NA,"West-Vlaanderen","Damme","8340",NA,NA,NA,NA,NA,NA,"29","949","83","31006","Damme","1982-12-29","1982001920","5125441","9036361608","Damme","3.30469999620855","51.2727000022885"
"TRUE","TRUE",NA,NA,"ndfhyzg1",NA,"NO","V_8340_23",NA,NA,NA,NA,NA,"West-Vlaanderen","Damme","8340",NA,NA,NA,NA,NA,NA,"29","949","83","31006","Damme","1982-12-29","1982001920","5125441","9036361608","Damme","3.29979999621256","51.3007000022802"
"TRUE","TRUE",NA,NA,"ndfhyzg1",NA,"NO","V_8340_24",NA,NA,NA,NA,NA,"West-Vlaanderen","Damme","8340",NA,NA,NA,NA,NA,NA,"29","949","83","31006","Damme","1982-12-29","1982001920","5125441","9036361608","Damme","3.35219999620027","51.3029000022851"
"TRUE","TRUE",NA,NA,"ndfhyzg1",NA,"NO","V_8340_25",NA,NA,NA,NA,NA,"West-Vlaanderen","Damme","8340",NA,NA,NA,NA,NA,NA,"29","949","83","31006","Damme","1982-12-29","1982001920","5125441","9036361608","Damme","3.29779099620961","51.2669450022894"
"FALSE","FALSE","Boorsem, Langeweidestraat, opw brug - meetplaats 381 (provincie Limburg)","Ziepbeek","mtbiodey",NA,"YES","I_3631_1",NA,NA,"VMM_Mtp","Lotisch",NA,"Limburg","Maasmechelen","3631","2","9766",NA,"Limburg",NA,"christel.bouchet@limburg.be","34","951","38","73042","Lanaken","1982-07-17","1982001074","5062253","58953775","Lanaken","5.7062929955791","50.9343809026548"
"FALSE","FALSE","Rekem, Oude god, opw brug - meetplaats 377 (provincie Limburg)","Ziepbeek",NA,NA,"YES","I_3621_1",NA,NA,"VMM_Mtp","Lotisch",NA,"Limburg","Lanaken","3621","2","9766",NA,"Limburg",NA,"christel.bouchet@limburg.be","34","951","38","73042","Lanaken","1982-07-17","1982001074","5062253","58953775","Lanaken","5.70558523989619","50.9233028138988"
"FALSE","FALSE","freely accessible?, recreation area","Zonnevijver",NA,NA,"YES","I_3621_2",NA,NA,"Scheers","Lentisch",NA,"Limburg","Lanaken","3621",NA,NA,NA,NA,NA,NA,"34","951","38","73042","Lanaken","1982-07-17","1982001074","5062253","58953775","Lanaken","5.66982839340958","50.9182746929746"
"TRUE","TRUE","ANB","Aspermansvijver","odcxnmmx",NA,"YES","I_3621_3",NA,NA,"Scheers","Lentisch",NA,"Limburg","Lanaken","3621","NA","NA",NA,"Jacobs Karen",NA,"recreatie.lim.anb@vlaanderen.be","34","951","38","73042","Lanaken","1982-07-17","1982001074","5062253","58953775","Lanaken","5.66343999559025","50.9361600026492"
"FALSE","FALSE","gemeente Lanaken?",NA,NA,NA,"YES","I_3620_1",NA,NA,"Scheers","Lentisch",NA,"Limburg","Lanaken","3620",NA,NA,NA,NA,NA,NA,"34","951","38","73042","Lanaken","1982-07-17","1982001074","5062253","58953775","Lanaken","5.66095939340924","50.9023993929831"
"FALSE","FALSE","LILA","Grindplas Hochterbampt",NA,NA,"YES","I_3620_2",NA,NA,"Scheers","Lentisch",NA,"Limburg","Lanaken","3620",NA,NA,NA,NA,NA,NA,"34","951","38","73042","Lanaken","1982-07-17","1982001074","5062253","58953775","Lanaken","5.69341869338227","50.9002086929888"
"FALSE","FALSE",NA,"Broekgracht",NA,NA,"YES","I_1800_1",NA,NA,"Scheers","Lotisch",NA,"Vlaams-Brabant","Vilvoorde","1800","2","6873",NA,"Vlaams-Brabant",NA,"ingrid.beuls@vlaamsbrabant.be","39","954","313","23088","Vilvoorde","1998-04-24","1998000040","329759","2157364058","Vilvoorde","4.46106339438252","50.9531359928061"
"ONHOLD","ONHOLD","Mispelarestraat","Heulebeek","zjm0zwm2",NA,"YES","I_8980_1",NA,NA,"VMM_Mtp","Lotisch",NA,"West-Vlaanderen","Zonnebeke","8980","2","58840",NA,"West-Vlaanderen",NA,NA,"46","956","244","33037","Zonnebeke","1976-01-23","1975123003","5245263","680927643","Zonnebeke","3.0247939","50.8775229"
"FALSE","FALSE","Beselare, Oude Kortrijkstraat, Reutel","Polygonebeek",NA,NA,"YES","I_8980_2",NA,NA,"VMM_Mtp","Lotisch",NA,"West-Vlaanderen","Zonnebeke","8980","2","4213",NA,"West-Vlaanderen",NA,NA,"46","956","244","33037","Zonnebeke","1976-01-23","1975123003","5245263","680927643","Zonnebeke","2.99945091840122","50.8490032245218"
"ONHOLD","ONHOLD",NA,"Heulebeek","zjm0zwm2",NA,"YES","I_8890_1",NA,NA,"VMM_Mtp","Lotisch",NA,"West-Vlaanderen","Moorslede","8890","2","4205",NA,"West-Vlaanderen",NA,NA,"46","956","244","33037","Zonnebeke","1976-01-23","1975123003","5245263","680927643","Zonnebeke","3.0663245","50.8572822"
"FALSE","FALSE","Kanne, opw 144000 tot 20m voor brug","Jeker",NA,NA,"YES","I_3770_1",NA,NA,"VMM_Mtp","Lotisch",NA,"Limburg","Riemst","3770","1","9504",NA,"VMM",NA,"d.slootmaekers@vmm.be","47","957","51","73066","Riemst","1982-07-17","1982001074","469343","5805689871","Riemst","5.67058205727213","50.8158241299308"
"FALSE","FALSE","zijbeek Hamonterbeek, Hamont, Lozerweg 100, via hoofdingang Lo kasteel De L'Escaille, opw onverharde weg","Lobeek",NA,NA,"YES","I_3930_1",NA,NA,"VMM_Mtp","Lotisch",NA,"Limburg","Hamont-Achel","3930","2","10201",NA,"Limburg",NA,"christel.bouchet@limburg.be","53","958","4","72037","Hamont-Achel","1976-01-23","1975123003","3199003","4373005549","Hamont-Achel","5.54330798672675","51.2264366245462"
"FALSE","FALSE","Hamont, Kluizerdijk, voor Achelse Kluis, 20m opw brug","Warmbeek",NA,NA,"YES","I_3930_2",NA,NA,"VMM_Mtp","Lotisch",NA,"Limburg","Hamont-Achel","3930","1","9508",NA,"VMM",NA,"d.slootmaekers@vmm.be","53","958","4","72037","Hamont-Achel","1976-01-23","1975123003","3199003","4373005549","Hamont-Achel","5.48764416303711","51.2955648390117"
"FALSE","FALSE","Achel, Koebroekerweg, einde traj 80m afw brug, begin traj aan gewone es op RO","Warmbeek",NA,NA,"YES","I_3930_3",NA,NA,"VMM_Mtp","Lotisch",NA,"Limburg","Hamont-Achel","3930","1","9508",NA,"VMM",NA,"d.slootmaekers@vmm.be","53","958","4","72037","Hamont-Achel","1976-01-23","1975123003","3199003","4373005549","Hamont-Achel","5.49274395996661","51.2663016160341"
"FALSE","FALSE","Oude Schelde Berchem Meerse","Rijtgracht",NA,NA,"YES","I_9690_1",NA,NA,"EcoWater","Lentisch",NA,"Oost-Vlaanderen","Kluisbergen","9690",NA,NA,NA,"Coppens Xavier",NA,"recreatie.ovl.anb@vlaanderen.be","59","960","297","45060","Kluisbergen","1976-01-23","1975123003","3037976","3063494074","Kluisbergen","3.54408479502335","50.8085979927936"
"FALSE","FALSE","Oude Schelde Scheiteput",NA,NA,NA,"YES","I_9690_2",NA,NA,"EcoWater","Lentisch",NA,"Oost-Vlaanderen","Kluisbergen","9690",NA,NA,NA,"Coppens Xavier",NA,"recreatie.ovl.anb@vlaanderen.be","59","960","297","45060","Kluisbergen","1976-01-23","1975123003","3037976","3063494074","Kluisbergen","3.52507609503581","50.8042644927942"
"FALSE","FALSE","Berchem,zijweg einde Meersestraat,Schijtput",NA,"ywzmndyy",NA,"YES","I_9690_3",NA,NA,"ANB_Mtp","Lentisch",NA,"Oost-Vlaanderen","Kluisbergen","9690",NA,NA,NA,"Coppens Xavier",NA,"recreatie.ovl.anb@vlaanderen.be","59","960","297","45060","Kluisbergen","1976-01-23","1975123003","3037976","3063494074","Kluisbergen","3.5254919961073","50.8039408024449"
"FALSE","FALSE","Berchem,Meers,Visserij","Rijtgracht",NA,NA,"YES","I_9690_4",NA,NA,"ANB_Mtp","Lentisch",NA,"Oost-Vlaanderen","Kluisbergen","9690",NA,NA,NA,"Coppens Xavier",NA,"recreatie.ovl.anb@vlaanderen.be","59","960","297","45060","Kluisbergen","1976-01-23","1975123003","3037976","3063494074","Kluisbergen","3.5443939468914","50.8085522900632"
"FALSE","FALSE","Aldeneik, Herenlaakweg, aan rotonde linker fietsweg, 1ste pad links naar beneden","Bosbeek",NA,NA,"YES","I_3680_1",NA,NA,"VMM_Mtp","Lotisch",NA,"Limburg","Maaseik","3680","1","10004",NA,"VMM",NA,"d.slootmaekers@vmm.be","61","961","20","72021","Maaseik","1982-07-17","1982001074","6098599","7718416843","Maaseik","5.8091330125314","51.1040777859537"
"FALSE","FALSE","Opoeteren, Volmolenstraat, thv Volmolen, opw verval","Bosbeek",NA,NA,"YES","I_3680_2",NA,NA,"VMM_Mtp","Lotisch",NA,"Limburg","Maaseik","3680","1","10004",NA,"VMM",NA,"d.slootmaekers@vmm.be","61","961","20","72021","Maaseik","1982-07-17","1982001074","6098599","7718416843","Maaseik","5.67376556008988","51.0767058091043"
"FALSE","FALSE","Opoeteren, Dorpermolenstraat thv huis nr.2, 30m opw. molen LO","Bosbeek",NA,NA,"YES","I_3680_3",NA,NA,"VMM_Mtp","Lotisch",NA,"Limburg","Maaseik","3680","1","10004",NA,"VMM",NA,"d.slootmaekers@vmm.be","61","961","20","72021","Maaseik","1982-07-17","1982001074","6098599","7718416843","Maaseik","5.65426558840057","51.0682086995667"
